"","X","PROGRAM.TYPE","PROGRAM","SITE.NAME","BOROUGH...COMMUNITY","AGENCY","Contact.Number","Grade.Level...Age.Group","Location.1","Postcode","Latitude","Longitude"
"1",1,"Immigration Services,Immigrant Support Services,NDA Programs,NDA Immigrants","NDA Immigrants","Make the Road New York","Queens","Make the Road New York","718-418-7690 X 205 ","Adult","92 10 Roosevelt Avenue",11372,40.748623,-73.874487
"2",2,"Jobs & Internships","Young Adult Internship Program","NYSARC, Inc. NYC Chapter","Staten Island","NYSARC, Inc. NYC Chapter","718.246.1506","16 to 24","120 Stuyvesant Place",10301,40.642992,-74.076954
"3",3,"After-School Programs,Beacon,NYCHA Community Center","Beacon Satellite","NYCHA REDFERN HOUSES","Queens","Police Athletic League @Redfern Community Center","(718) 471-0360","6 and up","1544 Hassock Street",11691,40.609102,-73.753359
"4",4,"After-School Programs","Out of School Time","P.S. 205 CLARION SCHOOL","Brooklyn","YMCA of Greater New York/Prospect Park","(718) 234-2655","Elementary","6701 20th Avenue",11204,40.61527,-73.987149
"5",5,"After-School Programs","Out of School Time","PAL Armory","Manhattan","Police Athletic League, Inc.","(212) 477-9450","High School","216 Fort Washington Avenue",10032,40.842571,-73.942097
"6",6,"Family Support,NDA Programs","Health Stat Initiative","Make the Road New York","Brooklyn","Make the Road New York","718.418.7690","All Ages","301 Grove St",11237,40.698448,-73.915629
"7",7,"After-School Programs","Out of School Time","Fred Doug High School","Manhattan","The Childrens Aid Society","(212) 865-6337","High School","885 Columbus Avenue",10025,40.797762,-73.963944
"8",8,"After-School Programs","Out of School Time","P.S. 197 OCEAN SCHOOL","Queens","YMCA of Greater New York/Cross Island","(917) 704-1239","Elementary","8 25 HICKSVILLE ROAD",11691,40.600199,-73.743968
"9",9,"After-School Programs","Out of School Time","P.S. 19 MARINO P. JEANTET SCHOOL","Queens","New York Junior Tennis League","(917) 526-9857","Elementary","98 02 Roosevelt Avenue",11368,40.749381,-73.867354
"10",10,"Jobs & Internships,Youth Employment","Summer Youth Employment ","El Barrio's Operation Fightback, Inc.","Manhattan","El Barrio's Operation Fightback, Inc.","212-410-7900","14 to 24","320 Pleasant Avenue",10035,40.795824,-73.932581
"11",11,"NDA Programs,Senior Programs,Older Adult Program","Seniors","Morrisania Air Rights Housing Development","Bronx","MIDDLE SCHOOL 322 (M322)","(718) 542-0006","Seniors","3135 Park Avenue",10451,40.82415,-73.917164
"12",12,"Family Support,NDA Programs"," Housing","Office of Senator Kruger","Brooklyn","Erasmus H.S. of Service Learning","(718) 743-0575","Adults","2201 Avenue
U ",11229,40.599623,-73.949312
"13",13,"After-School Programs,Summer Program,Summer Camp","Out of School Time","P.S. 250","Brooklyn","New York Junior Tennis League","(718) 782-2390","OST","108 Montrose Avenue",11206,40.707104,-73.945475
"14",14,"After-School Programs,Summer Program,Summer Camp","Out of School Time","M.S. 584 M.S. 584 - UPPER ACAD","Brooklyn","Community Counseling and Mediation","(718) 230-5100","OST","130 Rochester Avenue",11213,40.674656,-73.927794
"15",15,"After-School Programs","Out of School Time","P.S./I.S. 194 P.S./I.S. 194","Bronx","YMCA of Greater New York/Bronx","(347) 934-8146","Elementary","1301 Zerega Avenue",10462,40.835041,-73.845464
"16",16,"After-School Programs,Jobs & Internships,Youth Employment","In-School Youth Employment (ISY)","John F. Kennedy High School - H.S. 475","Bronx","Henkels & McCoy, Inc.","800.622.5577","High School","99 Terrace View Avenue",10463,40.877105,-73.912256
"17",17,"Reading & Writing,NDA Programs,English Language Program,ESOL,Family Literacy"," Adult Literacy","PS 225 - Eileen E Zaglin School","Brooklyn","Shorefront YM-YWHA of Brighton-Manhattan Beach, Inc.","(718) 891-0264","16+","1075 Oceanview Avenue",11235,40.579737,-73.956329
"18",18,"After-School Programs,NDA Programs,Youth Educational Support"," High-School Aged Youth","ACADEMY FOR COLLEGE PREPARATION AND CAREER EXPLORATION: A CO","Brooklyn","High School for Dual Language and Asian Studies","(718) 951-5015"," High School","911 FLATBUSH AVENUE",11226,40.649787,-73.95855
"19",19,"After-School Programs","Out of School Time","P.S. 31 WILLIAM T. DAVIS SCHOOL","Staten Island","Jewish Community Center of Staten Island, Inc.","(718) 273-4820","Elementary","55 LAYTON AVENUE",10301,40.641595,-74.085135
"20",20,"NDA Programs,Immigration Services,Immigrant Support Services"," Immigrant","U.C.C. Immigration Program","Brooklyn","Highbridge Community Life Center Adult Education and Training","(718) 649-7979","Adults","613 New Lots Avenue",11207,40.664728,-73.886561
"21",21,"After-School Programs","Beacon","PS 149 ","Queens","Goodwill Industries of Greater NY","718.426.0888","6 and up","93 11 34th Avenue",11372,40.754837,-73.874605
"22",22,"After-School Programs","Out of School Time","Washington House (High School)","Manhattan","Union Settlement Association","(212) 828-6120","High School","1775 Third Avenue",10029,40.786574,-73.948303
"23",23,"After-School Programs,Summer Program,Summer Camp","Out of School Time","Cornerstone Academy for Social","Bronx","Sports and Arts In Schools Foundation, Inc.","(347) 417-8159","OST","3441 Steenwick Avenue",10475,40.883025,-73.830366
"24",24,"After-School Programs,Summer Program,Summer Camp","Out of School Time","Amico Court Street Children","Brooklyn","American Italian Coalition of Organizations, Inc.","(718) 855-1778","Elementary","292 Court Street",11231,40.684137,-73.995053
"25",25,"After-School Programs,NDA Programs,Adolescent Literacy,Youth Educational Support"," Middle School Youth","Our Lady of Sorrows School","Queens","Make the Road New York","(718) 651-8427","Middle School","35 34 105th Street",11368,40.754876,-73.863206
"26",26,"After-School Programs","Out of School Time","P.S. 199 MAURICE FITZGERALD SC","Queens","Sunnyside Community Service, Inc.","(917) 843-7953","Elementary","39 20 48 AVENUE",11104,40.740088,-73.926214
"27",27,"After-School Programs","Out of School Time","Kips Bay 2","Bronx","Kips Bay Boys & Girls Club","(718) 824-9090","Elem/MS/HS","550 Balcom Avenue",10465,40.820911,-73.825943
"28",28,"After-School Programs","Out of School Time","I.S. 174 EUGENE T. MALESKA SCHOOL","Bronx","YMCA of Greater New York/Bronx","(718) 822-5341","Middle School","456 White Plains Road",10473,40.814833,-73.85658
"29",29,"Jobs & Internships,Youth Employment","Summer Youth Employment ","PAL-New South Bx. Center","Bronx","Police Athletic League, Inc. - Bronx ","718-389-5306","14 to 24","991 Longwood Ave",10459,40.817185,-73.897667
"30",30,"After-School Programs","Out of School Time","Edward R. Murrow HS","Brooklyn","Midwood Development Corporation","(718) 859-3011","High School","1600 Avenue
L ",11230,40.620525,-73.959285
"31",31,"After-School Programs,NDA Programs,Youth Educational Support"," High-School Aged Youth","August Martin High School","Queens","Brooklyn Housing & Family Services, Inc.","(718) 523-6868"," High School","156 10 Baisley Boulevard",11434,40.675633,-73.783342
"32",32,"After-School Programs,Beacon,NYCHA Community Center","Beacon Satellite","NYCHA SOUNDVIEW HOUSES","Bronx","Directions for our Youth @Soundview Community Center","(718) 378-6246","6 and up","1680 Seward Avenue",10473,40.818369,-73.86895
"33",33,"After-School Programs,Summer Program,Summer Camp","Out of School Time","I.S. 126 ALBERT SHANKER SCHOOL","Queens","Jacob A. Riis Neighborhood Settlement, Inc.","(718) 626-1651","OST","31 51 21st Street",11106,40.766264,-73.930709
"34",34,"After-School Programs","Out of School Time","J.H.S. 217 ROBERT VAN WYCK SCHOOL","Queens","Queens Community House, Inc","(718) 262-9234","Middle School","85 05 144th Street",11435,40.710024,-73.812508
"35",35,"NDA Programs,Senior Programs,Older Adult Program","Seniors","Sunset Park Center","Brooklyn","THEATRE ARTS PRODUCTION COMPANY SCHOOL (X225)","(718) 630-7171","Seniors","4520 4th Avenue",11220,40.649111,-74.009845
"36",36,"After-School Programs,Summer Program,Summer Camp","Out of School Time","C.E.S. 42 CLAREMONT SCHOOL","Bronx","Supportive Childrens Advocacy Network (SCAN)","(718) 583-7366","OST","1537 Washington Avenue",10457,40.838288,-73.902987
"37",37,"After-School Programs","Beacon","Marta Valley HS","Manhattan","Grand Street Settlement, Inc. ","212.505.6338 ext.21","6 and up","145 Stanton Street",10002,40.720581,-73.985645
"38",38,"After-School Programs","Teen Action Program","Be'er Hagolah Institutes","Brooklyn","Be'er Hagolah Institutes","718.642.6800 ext.101","13 to 21","671 Louisiana Avenue",11239,40.645638,-73.883643
"39",39,"After-School Programs","Beacon","MS 158","Queens","Samuel Field YM - YWHA, Inc. ","718.423.2266","6 and up","46 35 Oceania Street",11361,40.756139,-73.772862
"40",40,"After-School Programs","Teen Action Program","MOTT HAVEN VILLAGE PREPARATORY HIGH SCHOOL (X473)","Bronx","East Side House, Inc.","718.665.5250 ext.111","13 to 21","701 Saint Anns Avenue",10455,40.81825,-73.91103
"41",41,"Jobs & Internships,Youth Employment","Summer Youth Employment ","Chinatown Manpower Project, Inc.","Manhattan","Chinatown Manpower Project, Inc.","212-571-1690","14 to 24","70 Mulberry Street
flr ",10013,40.716092,-73.999203
"42",42,"Immigration Services,Immigrant Support Services","Legal Assistance Program","Chinese Consolidated Benevolent Asociation of New York","Manhattan","Northern Manhattan   Improvement Corporation","212-822-8319","All Ages","62 Mott St",10013,40.716051,-73.998222
"43",43,"After-School Programs,Summer Program,Summer Camp","Out of School Time","P.S. 260 BREUCKELEN SCHOOL","Brooklyn","Groundwork Inc.","(718) 346-2200","OST","875 Williams Avenue",11207,40.654031,-73.894854
"44",44,"After-School Programs,Summer Program,Summer Camp","Out of School Time","P.S. 186 CASTLEWOOD SCHOOL","Queens","Samuel Field YM & YWHA, Inc.","(718) 225-6750","OST","252 12 72 AVENUE",11426,40.750007,-73.721607
"45",45,"After-School Programs,Summer Program,Summer Camp","Out of School Time","East Bronx NAACP","Bronx","Tremont Crotona Day Care Center, Inc","(718) 617-2900","OST","1113 Colgate Avenue",10472,40.82629,-73.881509
"46",46,"After-School Programs","Out of School Time","I.S. 125 WOODSIDE SCHOOL","Queens","Sports and Arts In Schools Foundation, Inc.","(917) 922-5290","Middle School","46 02 47th Avenue",11377,40.741131,-73.918945
"47",47,"After-School Programs","Out of School Time","P.S. 22 GRANITEVILLE SCHOOL","Staten Island","YMCA of Greater New York/Staten Island YMCA","(718) 556-0521","Elementary","1860 Forest Avenue",10303,40.625369,-74.15097
"48",48,"After-School Programs","Out of School Time","Dreamyard A.C.T.I.O.N.","Bronx","Dream Yard Project, Inc.","(718) 588-8007","High School","940 Garrison Avenue",10474,40.818219,-73.890899
"49",49,"After-School Programs,NDA Programs,Adolescent Literacy,Youth Educational Support"," Middle School Youth","IS 252 ARTHUR S SOMMERS (K252)","Brooklyn","Neighborhood SHOPP Casa Boricua Senior Center","(347) 417-8120","Middle School","1084 LENOX ROAD",11212,40.658295,-73.920109
"50",50,"After-School Programs","Teen Action Program","COMMUNITY SCHOOL FOR SOCIAL JUSTICE (X427)","Bronx","Citizens Advice Bureau, Inc.","718.293.0727 ext.204","13 to 21","350 Gerard Avenue",10451,40.815938,-73.930386
"51",51,"After-School Programs","Out of School Time","I.S. 218 JAMES PETER SINNOTT M","Brooklyn","Police Athletic League, Inc.","(718) 277-1928","Elementary","370 FOUNTAIN AVENUE",11208,40.670724,-73.874208
"52",52,"After-School Programs,Summer Program,Summer Camp","Out of School Time","P.S. 96 RICHARD RODGERS SCHOOL","Bronx","Neighborhood Initiatives Development Corporation","(718) 231-9800","OST","650 Waring Avenue",10467,40.861371,-73.869296
"53",53,"After-School Programs","Out of School Time","P.S. 89 P.S. 89","Manhattan","Manhattan Youth Recreation & Resources Center","(212) 766-1104","Middle School","201 Warren Street",10282,40.716668,-74.013542
"54",54,"After-School Programs","Out of School Time","P.S. 48 MAPLETON SCHOOL","Brooklyn","Federation of Italian-American Organizations of Brooklyn","(718) 236-3187","Elementary","6015 18th Avenue",11204,40.621871,-73.987396
"55",55,"After-School Programs","Out of School Time","P.S. 40 GEORGE WASHINGTON","Brooklyn","Sports and Arts In Schools Foundation, Inc.","(718) 455-9445","Elementary","265 Ralph Avenue",11233,40.680463,-73.922264
"56",56,"After-School Programs,Summer Program,Summer Camp","Out of School Time","P.S. 146 EDWARD","Bronx","New York Junior Tennis League","(718) 842-2685","OST","968 CAULDWELL AVENUE",10456,40.825025,-73.906143
"57",57,"After-School Programs","Teen Action Program","Grand Street Settlement Beacon Center","New York","Grand Street Settlement, Inc.","212.674.1740","13 to 21","145 Stanton Street",10002,40.720581,-73.985645
"58",58,"After-School Programs","Out of School Time","I.S. 117 FRANCIS SCOTT KEY SCHOOL","Brooklyn","Sports and Arts In Schools Foundation, Inc.","(718) 230-5400","Middle School","300 Willoughby Avenue",11205,40.692642,-73.958794
"59",59,"After-School Programs","Out of School Time","Tottenville HS","Staten Island","Jewish Community Center of Staten Island, Inc.","(718) 605-3033","High School","100 Luten Avenue",10312,40.528092,-74.192032
"60",60,"After-School Programs","Out of School Time","P.S. 24 ANDREW JACKSON SCHOOL","Queens","The Child Center of New York (QCG) ","(718) 445-8176","Elementary","141 11 Holly Avenue",11355,40.75146,-73.817849
"61",61,"Immigration Services,Immigrant Support Services,NDA Programs,NDA Immigrants","NDA Immigrants","Make the Road New York","Staten Island","Make the Road New York","718-727-1222 718 418-7690 X 205 ","Adult","479 Port Richmond Avenue",10302,40.630818,-74.139187
"62",62,"After-School Programs,NDA Programs,Youth Educational Support"," High-School Aged Youth","The Children's Art Carnival","New York","Brooklyn Housing & Family Services, Inc.","(212) 234-4093"," High School","62 Hamilton Terrace",10031,40.823075,-73.946309
"63",63,"After-School Programs,Jobs & Internships,Youth Employment","In-School Youth Employment (ISY)","Chinese American Planning Council/Manhattan","New York","Chinese American Planning Council","212.941.0920","High School","100 Hester Street",10002,40.716553,-73.993092
"64",64,"After-School Programs","Beacon","MS 113","Bronx","Mosholu Montefiore Community Center","718.654.5881","6 and up","3710 Barnes Avenue",10467,40.880873,-73.860904
"65",65,"Family Support,NDA Programs"," Housing","Northern Manhattan Improvement Corporation","New York","F.E.G.S Brooklyn Resource Center","(212) 822-8300","Adults","76 Wadsworth Avenue",10033,40.847012,-73.93704
"66",66,"After-School Programs,Summer Program,Summer Camp","Out of School Time","P.S. 19 ROBERTO CLEMENTE SCHOO","Brooklyn","St. Nicholas Neighborhood Preservation Corporation","(718) 599-9224","OST","325 3rd Street",11215,40.673426,-73.984553
"67",67,"After-School Programs","Out of School Time","P.S. 215 LUCRETIA MOTT SCHOOL","Queens","Safe Space","(347) 489-0857","Elementary","535 Briar Place",11691,40.5993,-73.758206
"68",68,"After-School Programs","Out of School Time","Lower East Side Prep","Manhattan","Chinese American Planning Council","(212) 505-6366","High School","145 Stanton Street",10002,40.720581,-73.985645
"69",69,"After-School Programs,Summer Program,Summer Camp","Out of School Time","P.S. 149 THE DANNY KAYE SCHOOL","Brooklyn","Groundwork Inc.","(718) 346-2200","OST","700 Sutter Avenue",11207,40.669719,-73.892822
"70",70,"After-School Programs","Out of School Time","I.S.  318 I.S. 318 - MATH, SCI","Bronx","Phipps Community Development","(718) 294-8504","Middle School","1919 Prospect Avenue",10457,40.843546,-73.889755
"71",71,"After-School Programs,Beacon,NYCHA Community Center","Beacon Satellite","NYCHA SUMNER HOUSES","Brooklyn","YMCA-Eastern District @Sumner Community Center","(718) 919-4756","6 and up","862 Park Avenue",11206,40.698582,-73.940736
"72",72,"After-School Programs,Jobs & Internships,Youth Employment","In-School Youth Employment (ISY)","Ridgewood Bushwick Youth Center","Brooklyn","Ridgewood Bushwick Senior Citizens Council, Inc.","718.381.9653","High School","1474 Gates Avenue",11237,40.697788,-73.913906
"73",73,"Reading & Writing,NDA Programs,English Language Program,ESOL,Family Literacy"," Adult Literacy","The Arab American Family Support Center","Brooklyn","The Arab American Family Support Center","(718) 643-8000 x 19","16+","150 Court Street",11201,40.688806,-73.992806
"74",74,"After-School Programs,Summer Program,Summer Camp","Out of School Time","Bushwick Center 2","Brooklyn","The Salvation Army ","(718) 455-4103","OST","1151 Bushwick Avenue",11221,40.689133,-73.917483
"75",75,"After-School Programs,NDA Programs,Adolescent Literacy,Youth Educational Support"," Middle School Youth","IS 281 JOSEPH B CAVALLARO (K281)","Brooklyn","Thessalonia Baptist Church","(718) 236-5266","Middle School","8787 24 AVENUE",11214,40.595341,-73.993457
"76",76,"NDA Programs,Senior Programs,Older Adult Program","Seniors","Lafayette Estates","Bronx","Mothers on the Move","(718) 542-0006","Seniors","825 Morrison Avenue",10473,40.82084,-73.872649
"77",77,"After-School Programs,Summer Program,Summer Camp","Out of School Time","P.S./I.S. 124 OSMOND A. CHURCH","Queens","Mercy First","(718) 848-1532","OST","129 15 150th Avenue",11420,40.665058,-73.811701
"78",78,"After-School Programs,Summer Program,Summer Camp","Out of School Time","P.S. 54 SAMUEL C. BARNES SCHOO","Brooklyn","YMCA of Greater New York/Bedford Stuyvesant","(718) 789-1497","OST","195 SANFORD STREET",11205,40.693018,-73.953034
"79",79,"After-School Programs","Out of School Time","P.S. 95 EASTWOOD SCHOOL","Queens","YMCA of Greater New York/Jamaica YMCA","(718) 558-0673","Elementary","179 01 90th Avenue",11432,40.710624,-73.783423
"80",80,"After-School Programs","Teen Action Program","New Settlement Apartments","Bronx","New Settlement Apartments","718.716.8000 ext.116","13 to 21","1512 Townsend Avenue",10452,40.842478,-73.914915
"81",81,"After-School Programs","Out of School Time","High School for Public Service","Brooklyn","Global Kids, Inc.","(212) 226-0130","High School","600 Kingston Avenue",11203,40.658893,-73.942458
"82",82,"After-School Programs","Out of School Time","City Scholars at Thomas Edison","Queens","The After School Corporation","(646) 943-8766","High School","165 65 84th Avenue",11432,40.715389,-73.800369
"83",83,"After-School Programs","Out of School Time","PS/IS 25-Eubie Blake (ES)","Brooklyn","CAMBA  ","(718) 573-7593","Elementary","787 Lafayette Avenue",11221,40.691037,-73.941342
"84",84,"After-School Programs","Out of School Time","Dyckman Community Center","Manhattan","YM-YWHA of Washington Heights Inwood","(212) 569-6200","Elementary","3782 10th Avenue",10034,40.861366,-73.921207
"85",85,"Family Support,NDA Programs"," Housing","Project Home","New York","Refugee and Immigrant Services","(212) 674-9120","Adults","189 Allen
Stree ",10002,40.722133,-73.988964
"86",86,"After-School Programs","Out of School Time","P.S. 123 P.S. 123","Queens","Safe Space","(347) 678-6437","Elementary","145 01 119th Avenue",11436,40.678296,-73.79562
"87",87,"After-School Programs,NDA Programs,Youth Educational Support"," High-School Aged Youth","The Child Center","Queens","Community Mediation Services","(718) 458-4243"," High School","115 15 Sutphin Blvd",11434,40.68439,-73.79263
"88",88,"After-School Programs,Summer Program,Summer Camp","Out of School Time","P.S. 72 DR. WILLIAM P. DORNEY","Bronx","Directions For Our Youth, Inc.","(212) 362-4020","Elementary","2951 DEWEY AVENUE",10465,40.822604,-73.818247
"89",89,"After-School Programs","Out of School Time","RALPH J MCKEE CAREER TECHNICAL","Staten Island","New York Center for Interpersonal Development","(718) 947-4122","High School","290 St Mark's Place",10301,40.642793,-74.07873
"90",90,"After-School Programs","Teen Action Program","JHS 126 - John Ericsson","Brooklyn","Aspira of New York","212.564.6880 ext.115","13 to 21","424 Leonard Street",11222,40.719819,-73.948625
"91",91,"After-School Programs","Out of School Time","H.S. 427 COMMUNITY SCHOOL FOR","Bronx","Citizens Advice Bureau, Inc.","(718) 402-8481","High School","350 Gerard Avenue",10451,40.815938,-73.930386
"92",92,"After-School Programs,Summer Program,Summer Camp","Out of School Time","Haitian American (Bedford Ave)","Brooklyn","Haitian American ","(718) 756-0253","OST","1491 Bedford Avenue",11216,40.671739,-73.954672
"93",93,"Family Support,NDA Programs","Fatherhood Initiative","Ralph Lincoln Service Center ","Brooklyn","Ralph Lincoln Service Center, Inc.","718.604.1358","16 to 24","261 Buffalo Avenue",11213,40.669991,-73.925427
"94",94,"After-School Programs,Summer Program,Summer Camp","Out of School Time","P.S. 2 MEYER LONDON SCHOOL","Manhattan","Chinese American Planning Council","(212) 587-0912","Elementary","122 Henry Street",10002,40.713273,-73.991339
"95",95,"After-School Programs,Jobs & Internships,Youth Employment","In-School Youth Employment (ISY)","Henry Street Settlement","New York","Henry Street Settlement","212.766.9200","High School","301 Henry Street",10002,40.714054,-73.982797
"96",96,"Family Support,NDA Programs"," Housing","Rego Park Center","Queens","PS 015 PATRICK F. DALY (K015)","(718) 592-5757","Adults","93 29 Queens Boulevard",11374,40.73147,-73.866044
"97",97,"NDA Programs,Senior Programs,Older Adult Program","Seniors","Good Companions Senior center","New York","I.S. 5 - THE WALTER CROWLEY INTERMEDIATE SCHOOL (Q005)","(212) 766-9200","Seniors","334 Madison Street",10002,40.713266,-73.983237
"98",98,"Reading & Writing,NDA Programs,English Language Program,ESOL,Family Literacy"," Adult Literacy","Brooklyn Chinese-American Association","Brooklyn","Brooklyn Chinese-American Association","(718) 438-0008","16+","5006 8th Avenue",11220,40.641014,-74.003834
"99",99,"After-School Programs,Summer Program,Summer Camp","Out of School Time","P.S. 8 ROBERT FULTON SCHOOL","Brooklyn","YMCA of Greater New York/Dodge YMCA","(718) 834-6722","OST","37 HICKS STREET",11201,40.70071,-73.993241
"100",100,"After-School Programs","Out of School Time","Eastchester Community Center","Bronx","Inwood House","(718) 943-0520","Middle School","3016 Yates Avenue",10469,40.870125,-73.854588
"101",101,"Reading & Writing,NDA Programs,English Language Program,ESOL,Family Literacy"," Adult Literacy","Queens Community House","Queens","Queens Community House","(718) 898-7461","16+","74 09 37 Avenue",11372,40.748992,-73.891561
"102",102,"After-School Programs,Beacon,NYCHA Community Center","Beacon Satellite","NYCHA TAYLOR-WYTHE AVENUE HOUSES","Brooklyn","El Puente De Williamsburg @Taylor-Wythe Community Center","(718) 333-0575","6 and up","80 Clymer Street",11249,40.705037,-73.965992
"103",103,"After-School Programs,Summer Program,Summer Camp","Out of School Time","P.S. 71 FOREST SCHOOL","Queens","Greater Ridgewood Youth Council, Inc.","(718) 456-5437","OST","62 85 Forest Avenue",11385,40.711203,-73.905286
"104",104,"Jobs & Internships,Youth Employment","Summer Youth Employment ","East NY Development Corporation","Brooklyn","East NY Development Corporation","718-566-2129","14 to 24","2644 Atlantic Avenue",11207,40.675744,-73.896644
"105",105,"Immigration Services,Immigrant Support Services","Legal Assistance Program","El Centro de Hospitalidad ","Staten Island","Catholic Charities Community Service, Archdiocese of N Y","718-420-6466 646-772-0096","All Ages","1546 Castleton Avenue",10302,40.63586,-74.134431
"106",106,"NDA Programs,Senior Programs,Older Adult Program","Seniors","Crown Heights Jewish Community Council","Brooklyn","IS 281 JOSEPH B CAVALLARO (K281)","(718) 771-8808","Seniors","387 Kingston Ave",11225,40.665708,-73.942532
"107",107,"After-School Programs","Out of School Time","YM-YWHA Inwood","Manhattan","YM-YWHA of Washington Heights Inwood","(212) 569-6200","High School","54 Nagle Avenue",10040,40.859993,-73.929129
"108",108,"After-School Programs","Out of School Time","P.S. 295 P.S. 295","Brooklyn","YMCA of Greater New York/Prospect Park","(718) 965-0390","Elementary","330 18th Street",11215,40.660976,-73.988297
"109",109,"Immigration Services,Immigrant Support Services","Immigrant/Refugee Assistance","Jackson Heights-Elmhust Kehilah","Queens","Jackson Heights-Elmhust Kehilah, Inc.","718.457.4591","ESOL/Civics","33 47 91st Street (Jackson Heights",11372,40.755586,-73.876834
"110",110,"After-School Programs,Summer Program,Summer Camp","Out of School Time","Flatbush Action","Brooklyn","Flatbush Action Community Day Care Center, Inc.","(718) 693-9891","Elementary","525 Parkside Avenue",11226,40.655937,-73.955515
"111",111,"After-School Programs,Summer Program,Summer Camp","Out of School Time","P.S. 306 ETHAN ALLEN SCHOOL","Brooklyn","Brooklyn Bureau of Community Services","(718) 649-4119","Elementary","970 Vermont Street",11207,40.655997,-73.886547
"112",112,"After-School Programs","Out of School Time","P.S. 22 THOMAS JEFFERSON SCHOOL","Queens","The Korean American Family Service Center","(718) 539-6497","Elementary","153 33 Sanford Avenue",11355,40.761249,-73.811808
"113",113,"Jobs & Internships,Youth Employment","Summer Youth Employment ","National Society for Hebrew Day School","Brooklyn","National Society for Hebrew Day School","718-252-4446 ","14 to 24","1545 Coney Island Avenue",11230,40.619583,-73.964181
"114",114,"After-School Programs","Out of School Time","M.S. 136 M.S. 136 - CHARLES O.","Brooklyn","SCO Family of Services","(718) 788-3500","MS/HS","4004 Fourth Avenue",11232,40.651977,-74.006862
"115",115,"After-School Programs,Jobs & Internships,Youth Employment","In-School Youth Employment (ISY)","The Door - A Center of Alternatives","New York","The Door - A Center of Alternatives","212.941.9090","High School","121 6th Avenue",10013,40.723903,-74.00469
"116",116,"After-School Programs","Beacon","Grand Street Campus","Brooklyn","St. Nicholas Neighborhood Preservation Corporation","718.302.5930","6 and up","850 Grand Street",11211,40.712184,-73.939722
"117",117,"After-School Programs","Out of School Time","P.S. 166 HENRY GRADSTEIN SCHOOL","Queens","Jacob A. Riis Neighborhood Settlement, Inc.","(718) 361-2341","Elementary","33 09 35th Avenue",11106,40.757309,-73.926733
"118",118,"After-School Programs,Jobs & Internships,Youth Employment","In-School Youth Employment (ISY)","New Spirit II, Inc. -- Youth Center","Queens","New Spirit II, Inc.","718.712.1100","High School","162 04 South Road",11433,40.699445,-73.794329
"119",119,"After-School Programs,Summer Program,Summer Camp","Out of School Time","School for Democracy","Brooklyn","Community Counseling and Mediation","(718) 230-5100","OST","600 Kingston Avenue",11203,40.658893,-73.942458
"120",120,"After-School Programs","Out of School Time","HS for Legal Studies","Brooklyn","St. Nicholas Neighborhood Preservation Corporation","(718) 599-9224","High School","850 Grand Street",11211,40.712184,-73.939722
"121",121,"After-School Programs","Out of School Time","P.S. 234 P.S. 234","Queens","Sports and Arts In Schools Foundation, Inc.","(917) 509-1271","Elementary","30 15 29th Street",11102,40.767305,-73.923246
"122",122,"After-School Programs","Out of School Time","P.S./I.S. 89 CYPRESS HILLS COM","Brooklyn","Cypress Hills Local Development Corporation","(718) 277-3522","Elementary","350 Linwood Street",11208,40.677104,-73.883433
"123",123,"Reading & Writing,NDA Programs,English Language Program,Family Literacy,Adult Basic Education,ABE/GED"," Adult Literacy","The Jewish Community Center of Staten Island","Staten Island","The Jewish Community Center of Staten Island","(718) 508-3881","16+","475 Victory Boulevard",10301,40.630635,-74.088475
"124",124,"After-School Programs","Out of School Time","J.H.S. 157 STEPHEN HALSEY SCHOOL","Queens","Queens Community House, Inc","(718) 592-5757","High School","102 01 64th Avenue",11375,40.731841,-73.853328
"125",125,"After-School Programs","Out of School Time","P.S. 32 SAMUEL MILLS SPROLE","Brooklyn","Good Shepherd Services","(718) 625-5876","Elementary","317 Hoyt Street",11231,40.680445,-73.991949
"126",126,"After-School Programs","Beacon","Dr. Charles R. Drew Educational Complex","Bronx","Directions for Our Youth","718.293.4344","6 and up","3630 3rd Avenue",10456,40.833511,-73.90449
"127",127,"Reading & Writing,NDA Programs,English Language Program,ESOL,Family Literacy"," Adult Literacy","Jewish Community Council of Greater Coney Island, Inc.","Brooklyn","Jewish Community Council of Greater Coney Island, Inc.","(718) 449-5000 x 2237","16+","283 Prospect Avenue",11215,40.663323,-73.989165
"128",128,"After-School Programs","Out of School Time","P.S. 132 JUAN PABLO DUARTE SCHOOL","Manhattan","Alianza Dominicana, Inc.","(917) 470-8957","Elementary","185 Wadsworth Avenue",10033,40.850626,-73.934377
"129",129,"After-School Programs","Out of School Time","J.H.S. 189 DANIEL CARTER BEARD","Queens","YMCA of Greater New York/Flushing","(718) 961-6014","High School","144 80 Barclay Avenue",11355,40.759844,-73.820548
"130",130,"After-School Programs,Summer Program,Summer Camp","Out of School Time","P.S. 33 TIMOTHY DWIGHT SCHOOL","Bronx","Learning Thru An Expanded Arts Program, Inc.","(718) 563-4268","OST","2424 Jerome Avenue",10468,40.86185,-73.90176
"131",131,"After-School Programs,NDA Programs,Youth Educational Support"," High-School Aged Youth","I.S. 5 - THE WALTER CROWLEY INTERMEDIATE SCHOOL (Q005)","Queens","August Martin High School","(718) 784-6173"," High School","50 40 JACOBUS STREET",11373,40.737718,-73.887429
"132",132,"After-School Programs,Summer Program,Summer Camp","Out of School Time","P.S. 110 MONITOR SCHOOL","Brooklyn","North Brooklyn Development Corp","(718) 501-2861","OST","124 Monitor Street",11222,40.723897,-73.942312
"133",133,"After-School Programs","Teen Action Program","PS 018 JOHN G WHITTIER (R018)","Staten Island","United Activities Unlimited, Inc.","718.448.0477","13 to 21","221 Broadway",10310,40.636587,-74.117509
"134",134,"After-School Programs,Beacon,NYCHA Community Center","Beacon Satellite","NYCHA BAY VIEW HOUSES","Brooklyn","Sesame Flyers  @Bayview Community Center","(718) 968-9621","6 and up","5985 Shore Parkway",11236,40.632639,-73.883788
"135",135,"After-School Programs","Out of School Time","Jacob A. Riis","Queens","Jacob A. Riis Neighborhood Settlement, Inc.","(718) 784-7447","Elementary","10 25 41st Avenue",11101,40.755488,-73.945328
"136",136,"After-School Programs,Summer Program,Summer Camp","Out of School Time","P.S. 16 LEONARD DUNKLY SCHOOL","Brooklyn","YMCA of Greater New York/Greenpoint","(718) 389-3700","OST","157 WILSON STREET",11211,40.706023,-73.961476
"137",137,"Immigration Services,Immigrant Support Services","Domestic Violence Program","Edith and Carl Marks Jewish Community House of Bensonhurst","Brooklyn","New York Legal Assistance Group (NYLAG)","212.613.5000","All Ages","7802 Bay Parkway",11214,40.606369,-73.989235
"138",138,"After-School Programs,NDA Programs,Adolescent Literacy,Youth Educational Support"," Middle School Youth","St. Dominic School","Bronx","MBD Community Housing Corp","(64) 686-6102","Middle School","1684 White Plains Road",10462,40.843523,-73.865496
"139",139,"After-School Programs,Summer Program,Summer Camp","Out of School Time","P.S. 153 HOMECREST SCHOOL","Brooklyn","Chinese American Planning Council","(718) 627-6373","Elementary","1970 Homecrest Avenue",11229,40.601617,-73.959779
"140",140,"After-School Programs,Summer Program,Summer Camp","Out of School Time","P.S. 48 POLICE OFFICER MICHAEL","Manhattan","Community Association of Progressive Dominicans","(646) 652-9918","OST","4360 Broadway",10033,40.853466,-73.934048
"141",141,"After-School Programs","Out of School Time","Henry Street SettlemntOpt 2 HS","Manhattan","Henry Street Settlement","(212) 254-3100","High School","301 Henry Street",10002,40.714054,-73.982797
"142",142,"After-School Programs,Summer Program,Summer Camp","Out of School Time","P.S. 12 JAMES B. COLGATE SCHOO","Queens","Maspeth Town Hall, Inc.","(646) 300-4311","OST","42 00 72 STREET",11377,40.742633,-73.892805
"143",143,"Reading & Writing,NDA Programs,Family Literacy","Adolescent Literacy","I.S.168 - Parsons School ","Queens","The Child Center of NY","718.458.4243 ext. 205","grades 6 to 8","158 40 76th Road",11366,40.724458,-73.810216
"144",144,"After-School Programs,Jobs & Internships,Youth Employment","In-School Youth Employment (ISY)","Flushing High School - H.S. 460","Queens","Sports & Arts In Schools Foundation, Inc.","718.786.7110","High School","35 01 Union Street",11354,40.765166,-73.82789
"145",145,"Reading & Writing,NDA Programs,English Language Program,ESOL,Family Literacy"," Adult Literacy","Oceanview Jewish Center","Brooklyn","Shorefront YM-YWHA of Brighton-Manhattan Beach, Inc.","(718) 891-0264","16+","3100 Brighton 4th Street",11235,40.576651,-73.963189
"146",146,"After-School Programs,Summer Program,Summer Camp","Out of School Time","P.S. 153 HELEN KELLER SCHOOL","Bronx","Mosholu Montefiore Community Center, Inc.","(917) 482-5030","Elementary","650 Baychester Ave",10475,40.872614,-73.833698
"147",147,"After-School Programs,Beacon,NYCHA Community Center","Beacon Satellite","NYCHA OCEAN BAY APARTMENTS","Queens","Police Athletic League @Ocean Bay Community Center","(718) 634-4493","6 and up","57 10 Beach Channel Drive",11692,40.59476,-73.787436
"148",148,"After-School Programs","Teen Action Program","JHS 162 LOLA RODRIGUEZ DE TIO (X162)","Bronx","Sports and Arts In Schools Foundation, Inc.","347.417.8159","13 to 21","600 Saint Anns Avenue",10455,40.815498,-73.91224
"149",149,"After-School Programs,Summer Program,Summer Camp","Out of School Time","P.S. 20 JOHN BOWNE SCHOOL","Queens","Chinese American Planning Council","(718) 358-7602","Elementary","142 30 Barclay Avenue",11355,40.758689,-73.824832
"150",150,"After-School Programs,Summer Program,Summer Camp","Out of School Time","South Jamaica Center 1","Queens","Police Athletic League, Inc.","(718) 978-4655","OST","116 25 Guy R Brewer Boulevard",11434,40.686208,-73.784144
"151",151,"Immigration Services,Immigrant Support Services","Services - Immigrant Families","Cabrini Immigrant Services (Admin & Activity site)","Manhattan","Cabrini Center for Nursing & Rehabilitation","212.791.4590","18+","139 Henry Street",10002,40.713339,-73.990755
"152",152,"After-School Programs","Beacon","IS 10","Queens","Goodwill Industries of Greater NY","718.777.9202","6 and up","45 11 31st Avenue",11103,40.759363,-73.912902
"153",153,"After-School Programs","Out of School Time","Groundwork for Success (GWS)","Brooklyn","Groundwork Inc.","(718) 346-2200","High School","692 Blake Avenue",11207,40.668072,-73.89317
"154",154,"After-School Programs,Jobs & Internships,Youth Employment","In-School Youth Employment (ISY)","Adlai E. Stevenson High School - H.S. 450","Bronx","Episcopal Social Services, of New York, Inc.","212.886.5602","High School","1980 Lafayette Avenue",10473,40.82229,-73.856167
"155",155,"After-School Programs","Beacon","PS 18","Staten Island","United Activities Unlimited","718.448.4834","6 and up","221 Broadway",10310,40.636587,-74.117509
"156",156,"After-School Programs,Summer Program,Summer Camp","Out of School Time","P.S. 132 JUAN PABLO DUARTE SCH","Manhattan","Alianza Dominicana, Inc.","(917) 258-3900","Elem/MS/HS","185 Wadsworth Avenue",10033,40.850626,-73.934377
"157",157,"After-School Programs,NDA Programs,Adolescent Literacy,Youth Educational Support"," Middle School Youth","Middle School 136","Brooklyn","Educational Counseling Center","(718) 788-3500","Middle School","4004 Fourth Avenue",11232,40.651977,-74.006862
"158",158,"After-School Programs","Out of School Time","PS 169-Bay Terrace 2","Queens","Samuel Field YM & YWHA, Inc.","(718) 423-6111","High School","18 25 212th Street",11360,40.782298,-73.779099
"159",159,"After-School Programs,NDA Programs,Youth Educational Support"," High-School Aged Youth","Brooklyn College Arts Lab","Brooklyn","NEW UTRECHT HIGH SCHOOL (K445)","(718) 951-5015"," High School","2900 Bedford Avenue",11210,40.631691,-73.952656
"160",160,"After-School Programs","Out of School Time","Brooklyn Collegiate 1","Brooklyn","Sports and Arts In Schools Foundation, Inc.","(718) 922-1145","Middle School","2240 Dean Street",11233,40.674832,-73.91258
"161",161,"After-School Programs","Out of School Time","South Jamaica Center 1","Queens","Police Athletic League, Inc.","(718) 978-4655","Elementary","116 25 Guy R Brewer Boulevard",11434,40.686208,-73.784144
"162",162,"After-School Programs","Out of School Time","P.S. 18 EDWARD BUSH SCHOOL","Brooklyn","St. Nicholas Neighborhood Preservation Corporation","(718) 599-9224","Elementary","101 MAUJER STREET",11206,40.710609,-73.946977
"163",163,"After-School Programs,Summer Program,Summer Camp","Out of School Time","P.S. 86 IRVINGTON SCHOOL","Brooklyn","Ridgewood Bushwick Senior Citizens Council","(718) 381-9653","Elementary","220 Irving Avenue",11237,40.700774,-73.91748
"164",164,"After-School Programs","Out of School Time","So. Bronx Overall (opt. 2)","Bronx","South Bronx Overall Economic Devlpmt Corp.Opt 2HS ","(718) 732-7643","High School","1300 Boynton Ave",10472,40.831601,-73.878912
"165",165,"Jobs & Internships,Youth Employment","Summer Youth Employment ","Council of Jewish Organizations of Flatbush, Inc.","Brooklyn","Council of Jewish Organizations of Flatbush, Inc.","718-252-4446","14 to 24","1550 Coney Island Avenue",11230,40.619517,-73.964188
"166",166,"After-School Programs","Beacon","MS 2","Brooklyn","Research Foundation of CUNY","718.826.2889","6 and up","655 Parkside Avenue",11226,40.656183,-73.951583
"167",167,"After-School Programs","Out of School Time","C.E.S. 230 PS 230 DR ROLAND N","Bronx","Supportive Childrens Advocacy Network (SCAN)","(718) 583-6116","Elementary","275 Harlem River Park Bridge",10453,40.852536,-73.921467
"168",168,"Reading & Writing,NDA Programs,English Language Program,ESOL,Family Literacy,Adult Basic Education,ABE/GED"," Adult Literacy","PS 25 - Eubie Blake School","Brooklyn","CAMBA","(718) 940-1737 x 424","16+","787 Lafayette Avenue",11221,40.691037,-73.941342
"169",169,"After-School Programs","Teen Action Program","IS 027 ANNING S PRALL (R027)","Staten Island","Sports and Arts In Schools Foundation, Inc.","347.417.8161","13 to 21","11 CLOVE LAKE PLACE",10310,40.628169,-74.116997
"170",170,"After-School Programs,Jobs & Internships,Youth Employment","Out-of-School Youth Employment (OSY)","South Bronx Job Corps","Bronx","Arbor Employment and Training","718.731.7686","16 to 21","1771 Andrews Avenue",10453,40.850677,-73.91682
"171",171,"After-School Programs","Out of School Time","P.S. 121 THE THROOP SCHOOL","Bronx","New York Junior Tennis League","(718) 231-3239","Elementary","2750 THROOP AVENUE",10469,40.86608,-73.850982
"172",172,"After-School Programs","Out of School Time","P.S. 8 P.S. 008 ISSAC VARIAN","Bronx","Mosholu Montefiore Community Center, Inc.","(718) 365-3857","Elementary","3010 Briggs Avenue",10458,40.872612,-73.883574
"173",173,"After-School Programs","Out of School Time","Central Queens YM","Queens","Jewish Child Care Association","(718) 275-6489","High School","67 09 108th Street",11375,40.728702,-73.847414
"174",174,"After-School Programs,NDA Programs,Youth Educational Support"," High-School Aged Youth","Manhattan Center for Science and Mathematics","New York","Far Rockaway High School","(212) 284-4587"," High School","280 Pleasant Avenue",10029,40.794476,-73.933565
"175",175,"After-School Programs,Summer Program,Summer Camp","Out of School Time","P.S. 22 P.S. 22","Brooklyn","Friends of Crown Heights Educational Center","(718) 638-8686","OST","443 St Marks Avenue",11238,40.676774,-73.960058
"176",176,"After-School Programs","Out of School Time","PS 056 HARRY EICHLER (Q056)","Queens","The Child Center of New York (QCG) ","(347) 510-4894","Elementary","86 10 114 STREET",11418,40.69919,-73.835299
"177",177,"Reading & Writing,NDA Programs,English Language Program,ESOL,Family Literacy"," Adult Literacy","Catholic Charities Neighborhood Services","Queens","Catholic Charities Neighborhood Services","(718) 726-9790 x 128","16+","23 40 Astoria Boulevard",11102,40.771582,-73.92375
"178",178,"After-School Programs","Out of School Time","P.S. 186 DR. IRVING A. GLADSTO","Brooklyn","St. Rosalia-Regina Pacis Neighborhood Improvement","(718) 236-0971","Elementary","7601 19th Avenue",11214,40.611483,-73.994677
"179",179,"After-School Programs,Summer Program,Summer Camp","Out of School Time","Jewish Institute of Queens","Queens","Jewish Institute of Queens","(718) 426-9369","OST","60 05 Woodhaven Blvd",11373,40.731256,-73.871561
"180",180,"Family Support,NDA Programs"," Housing","Aids Center of Queens County","Queens","International Tower for Seniors","(718) 896-2500","Adults","1600 Central Avenue",11691,40.605182,-73.751962
"181",181,"After-School Programs","Out of School Time","Boys To Men","Bronx","Inwood House","(718) 742-8100","Middle School","522 Courtland Avenue",10451,40.816006,-73.919783
"182",182,"Jobs & Internships,Youth Employment","Summer Youth Employment ","Edith and Carl Marks Jewish Community House of Bensonhurst","Brooklyn","Edith and Carl Marks Jewish Community House of Bensonhurst","718-331-6800 x112","14 to 24","7802 Bay Parkway",11214,40.606369,-73.989235
"183",183,"After-School Programs","Out of School Time","P.S. 140 EAGLE SCHOOL","Bronx","Kips Bay Boys & Girls Club","(718) 585-1205","Elementary","916 Eagle Avenue",10456,40.823289,-73.907948
"184",184,"After-School Programs,Summer Program,Summer Camp","Out of School Time","P.S. 32 SAMUEL MILLS SPROLE","Brooklyn","Good Shepherd Services","(718) 625-5876","OST","317 Hoyt Street",11231,40.680445,-73.991949
"185",185,"After-School Programs","Out of School Time","P.S. 200 BENSON SCHOOL","Brooklyn","YMCA of Greater New York/Prospect Park","(917) 842-7569","Elementary","1940 BENSON AVENUE",11214,40.603188,-74.001408
"186",186,"Reading & Writing,NDA Programs,Family Literacy","Family Literacy","Public School 198/77 - Isador & Ida Straus School","New York","Stanley M. Isaacs Neighborhood Center, Inc.","212-360-7625","A parent 16 Years Old or Older ","1700 Third Avenue",10128,40.784826,-73.949611
"187",187,"After-School Programs,Summer Program,Summer Camp","Out of School Time","P.S./I.S. 43 P.S. 43","Queens","Federation Employment & Guidance Services (FEGS)","(718) 471-7875","Elementary","160 Beach 29th Street",11691,40.593834,-73.76174
"188",188,"After-School Programs","Out of School Time","Sunnyside Community","Queens","Sunnyside Community Service, Inc.","(718) 784-6173","High School","43 31 39th Street",11104,40.74519,-73.925909
"189",189,"After-School Programs,Summer Program,Summer Camp","Out of School Time","P.S. 219 KENNEDY-KING SCHOOL","Brooklyn","University Settlement Society of New York, Inc","(917) 828-6376","OST","1060 CLARKSON AVENUE",11212,40.659288,-73.922919
"190",190,"Reading & Writing,NDA Programs,English Language Program,ESOL,Family Literacy"," Adult Literacy","Brooklyn Chinese-American Association","Brooklyn","Brooklyn Chinese-American Association","(718) 438-0008","16+","6809 20th Avenue",11204,40.61468,-73.987765
"191",191,"After-School Programs,Jobs & Internships,Youth Employment","In-School Youth Employment (ISY)","Washington Houses Community Center","New York","Union Settlement Association","212.828.6018","High School","1775 Third Avenue",10029,40.786574,-73.948303
"192",192,"After-School Programs,Summer Program,Summer Camp","Out of School Time","THE SCHOOL FOR HUMAN RIGHTS","Brooklyn","Community Counseling and Mediation","(718) 230-5100","Middle School","600 Kingston Avenue
floor ",11203,40.658893,-73.942458
"193",193,"After-School Programs","Beacon","JHS 349/345","Bronx","Aspira of New York","718.842.8289","6 and up","345 Brook Avenue",10454,40.81004,-73.917792
"194",194,"After-School Programs,Summer Program,Summer Camp","Out of School Time","P.S. 188 KINGSBURY SCHOOL","Queens","The Child Center of New York (QCG) ","(917) 459-4417","OST","218 12 HARTLAND AVENUE",11364,40.736177,-73.753159
"195",195,"NDA Programs,Immigration Services,Immigrant Support Services"," Immigrant","Make the Road New York","Brooklyn","Harlem RBI","(347) 243-7249","Adults","301 Grove Street",11237,40.698448,-73.915629
"196",196,"After-School Programs,Summer Program,Summer Camp","Out of School Time","P.S. 94 KINGS COLLEGE SCHOOL","Bronx","Mosholu Montefiore Community Center, Inc.","(718) 405-6345","Elementary","3530 KINGS COLLEGE PLACE",10467,40.880522,-73.87572
"197",197,"After-School Programs","Beacon","JHS 126","Brooklyn","St. Nicholas Neighborhood Preservation Corporation","718.388.5546","6 and up","424 Leonard Street",11222,40.719819,-73.948625
"198",198,"After-School Programs,NDA Programs,Youth Educational Support"," High-School Aged Youth","HIGH SCHOOL OF COMPUTERS AND TECHNOLOGY (X275)","Bronx","Citizens Advice Bureau","(718) 732-7523"," High School","800 GUN HILL ROAD",10467,40.875953,-73.86197
"199",199,"After-School Programs","Out of School Time","I.S. 318 EUGENIO MARIA DE HOST","Brooklyn","Sports and Arts In Schools Foundation, Inc.","(718) 782-0589","Middle School","101 Walton Street",11206,40.7025,-73.948869
"200",200,"After-School Programs","Beacon","PS 1","Brooklyn","SCO Family of Services","718.492.2619","6 and up","309 47th Street",11220,40.649042,-74.012289
"201",201,"After-School Programs,Summer Program,Summer Camp","Out of School Time","P.S./I.S. 225 EILEEN E. ZAGLIN","Brooklyn","Shorefront YM-YWHA","(347) 274-3417","OST","1075 OCEAN VIEW AVENUE",11235,40.579737,-73.956329
"202",202,"After-School Programs,Jobs & Internships,Youth Employment","In-School Youth Employment (ISY)","Public School 80 - The Michael J. Petrides School","Staten Island","Police Athletic League, Inc.","212.477.6504","High School","715 Ocean Terrace",10301,40.608517,-74.102078
"203",203,"After-School Programs","Teen Action Program","Manhattan Center For Science and Mathematics","New York","The Children's Aid Society","212.949.4921","13 to 21","280 Pleasant Avenue",10029,40.794476,-73.933565
"204",204,"After-School Programs","Out of School Time","Young Minds","Brooklyn","Fort Green Senior Citizen Council, Inc.","(718) 622-8622","Elementary","972 Fulton Street",11238,40.682446,-73.961984
"205",205,"After-School Programs","Out of School Time","M.S. 74 NATHANIEL HAWTHORNE SC","Queens","The Child Center of New York (QCG) ","(718) 423-1232","Middle School","61 15 Oceania Street",11364,40.745201,-73.767446
"206",206,"After-School Programs","Beacon","JHS 216","Queens","Samuel Field YM - YWHA, Inc. ","718.445.6983","6 and up","64 20 175th Street",11365,40.737517,-73.794031
"207",207,"After-School Programs","Out of School Time","Harlem Temple Community Center","Manhattan","The Salvation Army ","(212) 862-3900","Elementary","540 Lenox Ave",10037,40.815601,-73.939754
"208",208,"Jobs & Internships,Youth Employment","Summer Youth Employment ","Research Foundation of CUNY - LaGuardia CC","Queens","Research Foundation of CUNY - LaGuardia CC","718-482-5340","14 to 24","29 10 Thomson Avenue
Rm C ",11101,40.745216,-73.937602
"209",209,"Reading & Writing,NDA Programs,Family Literacy","Family Literacy","Public School 249 - The Caton School","Brooklyn","CAMBA, Inc.","718-282-5575","A parent 16 Years Old or Older ","18 Marlborough Road",11226,40.64971,-73.966046
"210",210,"Jobs & Internships,Youth Employment","Summer Youth Employment ","Vannguard Urban Improvement Association, Inc. - ","Brooklyn","Vannguard Urban Improvement Association, Inc. - ","718-453-3330 ","14 to 24","141 Macon Street",11216,40.681572,-73.945446
"211",211,"After-School Programs,Summer Program,Summer Camp","Out of School Time","Friends Ed Center","Brooklyn","Friends of Crown Heights Educational Center","(718) 638-8686","OST","671 Prospect Place",11216,40.674695,-73.954594
"212",212,"After-School Programs","Teen Action Program","MS. 035 Stephen Decatur (K035)","Brooklyn","SCO Family of Services","718.919.1226","13 to 21","272 Macdonough Street",11233,40.681896,-73.935963
"213",213,"After-School Programs","Out of School Time","P.S. 92 ADRIAN HEGEMAN","Brooklyn","CAMBA  ","(718) 287-1216","Elementary","601 Parkside Avenue",11226,40.656046,-73.953742
"214",214,"Jobs & Internships,Youth Employment","Summer Youth Employment ","St. Mary's Community Services, Inc.","Brooklyn","St. Mary's Community Services, Inc.","718-230-0827 ","14 to 24","230 Classon Avenue",11205,40.692769,-73.960824
"215",215,"Reading & Writing,NDA Programs,English Language Program,ESOL,Family Literacy"," Adult Literacy","Shorefront YM-YWHA of Brighton-Manhattan Beach, Inc.","Brooklyn","Shorefront YM-YWHA of Brighton-Manhattan Beach, Inc.","(718) 891-0264","16+","3300 Coney Island Avenue",11235,40.575607,-73.959463
"216",216,"After-School Programs,NDA Programs,Adolescent Literacy,Youth Educational Support"," Middle School Youth","PSS/WSF GrandParent Family Apartment","Bronx","Manhattan Legal Services","(212) 874-6633","Middle School","951 Prospect Avenue",10459,40.822317,-73.900535
"217",217,"After-School Programs,Jobs & Internships,Youth Employment","In-School Youth Employment (ISY)","Bedford Stuyvesant Restoration Corporation","Brooklyn","Bedford Stuyvesant Restoration Corporation","718.636.6931","High School","1368 Fulton Street",11216,40.680175,-73.945717
"218",218,"After-School Programs","Out of School Time","Yeshiva Kehilath Yakov - Boys","Brooklyn","Yeshiva Kehilath Yakov","(718) 972-2900","Elementary","4706 10th Avenue",11219,40.640015,-73.997694
"219",219,"After-School Programs","Out of School Time","Canarsie HS","Brooklyn","Global Kids, Inc.","(212) 226-0130","High School","1600 Rockaway Parkway",11236,40.641474,-73.898254
"220",220,"After-School Programs","Out of School Time","I.S. 73 I.S. 73 - THE FRANK SA","Queens","Maspeth Town Hall, Inc.","(718) 335-6049","Middle School","70 02 54 Avenue",11378,40.729215,-73.893624
"221",221,"After-School Programs","Out of School Time","St. James Rec","Bronx","Childrens Arts & Science Workshops, Inc.","(212) 542-0578","Elem/MS/HS","2530 Jerome Avenue",10468,40.864777,-73.899489
"222",222,"Reading & Writing,NDA Programs,English Language Program,Family Literacy,Adult Basic Education,ABE/GED"," Adult Literacy","SQPA-NY Southern Queens Park Association NY","Queens","SQPA-NY Southern Queens Park Association NY","(718) 276-4630","16+","177 01 Baisley Boulevard",11434,40.686284,-73.768455
"223",223,"After-School Programs,Jobs & Internships,Youth Employment","In-School Youth Employment (ISY)","Public School 314 - Luis Munoz Marin Elementary School","Brooklyn","SCO Family of Services","516.671.1253","High School","330 59th Street",11220,40.642121,-74.018997
"224",224,"After-School Programs,Summer Program,Summer Camp","Out of School Time","P.S. 44 THOMAS BROWN SCHOOL","Staten Island","United Activities Unlimited, Inc.","(718) 644-1318","OST","80 MAPLE PARKWAY",10303,40.63179,-74.156439
"225",225,"After-School Programs","Out of School Time","51 AVENUE ACADEMY PATH TOQ877","Queens","Coalition for Hispanic Family Services","(347) 768-0241","Elementary","76 05 51 AVENUE",11373,40.73679,-73.887438
"226",226,"Immigration Services,Immigrant Support Services","Domestic Violence Program","Kensington Self-Help ","Brooklyn","New York Legal Assistance Group (NYLAG)","212-613-5000","All Ages","419 Church Ave",11218,40.644278,-73.975947
"227",227,"After-School Programs","Out of School Time","Cornerstone Academy for Social","Bronx","Sports and Arts In Schools Foundation, Inc.","(347) 417-8159","Elementary","3441 Steenwick Avenue",10475,40.883025,-73.830366
"228",228,"After-School Programs,NDA Programs,Adolescent Literacy,Youth Educational Support"," Middle School Youth","I.S.117 JOSEPH H WADE (X117)","Bronx","PS 126 JACOB AUGUST RIIS (M126)","(212) 652-2812","Middle School","1865 MORRIS AVENUE",10453,40.848516,-73.908427
"229",229,"After-School Programs,Summer Program,Summer Camp","Out of School Time","CYO","Staten Island","Catholic Charities Community Service, Archdiocese of N Y","(718) 448-4949","Elementary","120 Anderson Avenue",10302,40.634927,-74.134422
"230",230,"Jobs & Internships,Youth Employment","Summer Youth Employment ","New York City Housing Authority - Brooklyn","Brooklyn","New York City Housing Authority - Brooklyn","212-306-3985","14 to 24","350 Livingston Street",11217,40.687775,-73.980979
"231",231,"After-School Programs,Summer Program,Summer Camp","Out of School Time","C.E.S. 109 SEDGWICK SCHOOL","Bronx","Bronx Arts Ensemble","(718) 601-7399","Elementary","1771 Popham Avenue",10453,40.851414,-73.918533
"232",232,"After-School Programs","Out of School Time","P.S. 223 LYNDON BAINES JOHNSON","Queens","The Child Center of New York (QCG) ","(347) 510-4895","Elementary","125 20 SUTPHIN BOULEVARD",11434,40.674519,-73.789399
"233",233,"After-School Programs,Jobs & Internships,Youth Employment","Out-of-School Youth Employment (OSY)","The Door - A Center of Alternatives","New York","The Door - A Center of Alternatives","212.941.9090","16 to 21","121 Avenue
of the Americas ",10013,40.723903,-74.00469
"234",234,"After-School Programs","Out of School Time","Kips Bay 1","Bronx","Kips Bay Boys & Girls Club","(718) 893-8254","Elem/MS/HS","1930 Randall Avenue",10473,40.817841,-73.856704
"235",235,"After-School Programs,Summer Program,Summer Camp","Out of School Time","P.S. 149 THE DANNY KAYE SCHOOL","Brooklyn","Brooklyn Bureau of Community Services","(347) 834-3097","Elementary","700 Sutter Avenue",11207,40.669719,-73.892822
"236",236,"After-School Programs","Out of School Time","P.S. 186 CASTLEWOOD SCHOOL","Queens","Samuel Field YM & YWHA, Inc.","(718) 225-6750","Elementary","252 12 72 AVENUE",11426,40.750007,-73.721607
"237",237,"After-School Programs,Jobs & Internships,Youth Employment","In-School Youth Employment (ISY)","Grace Dodge Vocational High School - H.S. 660","Bronx","Mid-Bronx Council Services, Inc.","718.588.8200","High School","2474 Crotona Avenue",10458,40.855698,-73.882715
"238",238,"Family Support,NDA Programs"," Housing","Cypress Hills Local Development","Brooklyn","THURGOOD MARSHALL ACADEMY FOR LEARNING AND SOCIAL CHANGE (M670)","(718) 674-2800","Adults","3214 Fulton Street",11208,40.682465,-73.876328
"239",239,"After-School Programs,Summer Program,Summer Camp","Out of School Time","P.S. 85 P.S. 85","Bronx","New York City Mission Society","(718) 583-7200","OST","2400 Marion Avenue",10458,40.8591,-73.894946
"240",240,"Family Support,NDA Programs"," Housing","South Brooklyn Legal Services, Inc.","Brooklyn","INTERNATIONAL HIGH SCHOOL AT PROSPECT HEIGHTS (K524)","(718) 237-5500","Adults","105 Court Street",11201,40.690793,-73.991825
"241",241,"After-School Programs","Out of School Time","P.S. 21 EDWARD HART SCHOOL","Queens","YMCA of Greater New York/Flushing","(347) 776-1881","Elementary","147 36 26th Avenue",11354,40.774512,-73.819284
"242",242,"Reading & Writing,NDA Programs,Family Literacy","Family Literacy","Public School 92 - Harry T Stewart Senior","Queens","Coalition for Hispanic Family Services","718-497-6090","A parent 16 Years Old or Older ","99 01 34 Avenue",11368,40.755418,-73.869017
"243",243,"After-School Programs,Summer Program,Summer Camp","Out of School Time","Warren Street Center","Brooklyn","Sunset Bay Community Services, Inc","(718) 237-9578","OST","343 Warren Street",11201,40.685037,-73.990254
"244",244,"After-School Programs","Out of School Time","P.S. 250","Brooklyn","New York Junior Tennis League","(367) 405-6196","Elementary","108 Montrose Avenue",11206,40.707104,-73.945475
"245",245,"After-School Programs,Jobs & Internships,Youth Employment","In-School Youth Employment (ISY)","Mosholu Montefiore Community Center, Inc.","Bronx","Mosholu Montefiore Community Center, Inc.","718.882.4000","High School","3400 Reservoir Oval",10467,40.878889,-73.87581
"246",246,"After-School Programs,Summer Program,Summer Camp","Out of School Time","C.E.S. 55 BENJAMIN FRANKLIN SC","Bronx","Supportive Childrens Advocacy Network (SCAN)","(718) 681-6227","OST","450 SAINT PAULS PLACE",10456,40.836404,-73.905014
"247",247,"Immigration Services,Immigrant Support Services","Legal Assistance Program","Flushing Immigration Center - CUNY","Queens","Research Foundation of CUNY","718-640-9223","All Ages","39 07 Prince St",11354,40.759543,-73.832255
"248",248,"After-School Programs,Jobs & Internships,Youth Employment","In-School Youth Employment (ISY)","Foster-Laurie","Queens","Police Athletic League, Inc.","212.477.6504","High School","199 10 112th Avenue",11412,40.702514,-73.756595
"249",249,"Jobs & Internships,Youth Employment","Summer Youth Employment ","Asociaciones Dominicanas, Inc - Vulnerable Youth","Brooklyn","Asociaciones Dominicanas, Inc - Vulnerable Youth","718-599-2386 ","14 to 24","202 Union Avenue
ste L&M ",11211,40.706403,-73.950356
"250",250,"After-School Programs","Beacon","IS 220","Brooklyn","Chinese American Planning Council","718.436.5270","6 and up","4812 9th Avenue",11220,40.640545,-74.000731
"251",251,"NDA Programs,Senior Programs,Older Adult Program","Seniors","Mt. Ararat Presentation Senior Center","Brooklyn","YWCA of Queens","(718) 345-5665","Seniors","1630 St Marks Avenue",11233,40.673166,-73.912849
"252",252,"After-School Programs","Out of School Time","SOBRO-Evander","Bronx","South Bronx Overall Economic Development Corp.","(718) 732-7561","High School","800 Gun Hill Road",10467,40.875953,-73.86197
"253",253,"Reading & Writing,NDA Programs,English Language Program,ESOL,Family Literacy"," Adult Literacy","Flatbush YMCA","Brooklyn","YMCA of Greater New York / ELESAIR","(212) 875-4336","16+","1401 Flatbush Avenue",11210,40.636511,-73.951539
"254",254,"After-School Programs","Out of School Time","P.S. 152 GWENDOLINE ALLEYNE SC","Queens","Woodside On The Move, Inc.","(718) 476-8449","Elementary","33 52 62 STREET",11377,40.753037,-73.900123
"255",255,"After-School Programs","Out of School Time","Brooklyn Collegiate 2","Brooklyn","Sports and Arts In Schools Foundation, Inc.","(718) 922-1145","High School","2240 Dean Street",11233,40.674832,-73.91258
"256",256,"After-School Programs","Out of School Time","P.S. 7 ABRAHAM LINCOLN SCHOOL","Brooklyn","Cypress Hills Local Development Corporation","(718) 235-2345","Elementary","858 JAMAICA AVENUE",11208,40.689697,-73.873109
"257",257,"After-School Programs,NDA Programs,Adolescent Literacy,Youth Educational Support"," Middle School Youth","Grand Street Settlement","New York","Jewish Community Council of Greater Coney Island, Inc","(646) 201-4288","Middle School","80 Pitt Street",10002,40.718328,-73.98245
"258",258,"NDA Programs,Senior Programs,Older Adult Program","Seniors","IPR/HE Brooklyn Caregivers","Brooklyn","Khalil Gibran International Academy","(212) 677-4181","Seniors","1368 Fulton St",11216,40.680175,-73.945717
"259",259,"Family Support,NDA Programs"," Housing","FAC Center for Community Development","Brooklyn","Cypress Hills Local Development","(718) 237-2017","Adults","621 DeGraw Street",11217,40.678948,-73.982857
"260",260,"Immigration Services,Immigrant Support Services","Immigrant/Refugee Assistance","Make the Road New York-Jackson Heights Center","Queens","Make the Road New York","718.565.8500","ESOL/Civics","71 24 Roosevelt Avenue Jackson Heights",11372,40.746551,-73.894199
"261",261,"After-School Programs","Beacon","JHS 265","Brooklyn","Goodwill Industries of Greater NY","718.237.0852","6 and up","101 Park Ave",11205,40.696324,-73.97578
"262",262,"After-School Programs,Summer Program,Summer Camp","Out of School Time","P.S. 307 PS 307 DANIEL HALE WI","Brooklyn","Directions For Our Youth, Inc.","(646) 592-0754","Elementary","209 YORK STREET",11201,40.701343,-73.982314
"263",263,"After-School Programs","Teen Action Program","New School @ PS 314","Brooklyn","SCO Family of Services","718.788.3500","13 to 21","330 59th Street",11220,40.642121,-74.018997
"264",264,"NDA Programs,Senior Programs,Older Adult Program","Seniors","Mercy House","Bronx","Tompkins Park Senior Center","(718) 542-0006","Seniors","4170 Carpenter Avenue",10466,40.893523,-73.860689
"265",265,"After-School Programs,Summer Program,Summer Camp","Out of School Time","I.S. 61 WILLIAM MORRIS SCHOOL","Staten Island","The Childrens Aid Society","(718) 727-8481","Middle School","445 Castleton Avenue",10301,40.634009,-74.097826
"266",266,"After-School Programs,Summer Program,Summer Camp","Out of School Time","P.S. 229 DYKER SCHOOL","Brooklyn","St. Rosalia-Regina Pacis Neighborhood Improvement","(718) 236-5447","OST","1400 Benson Avenue",11228,40.610963,-74.013376
"267",267,"Family Support,NDA Programs"," Housing","Shorefront Jewish Community Council","Brooklyn","Flatbush Development Corporation","(718) 743-0575","Adults","3049 Brighton 6th Street",11235,40.578435,-73.961751
"268",268,"After-School Programs,Jobs & Internships,Youth Employment","In-School Youth Employment (ISY)","Sesame Flyers International, Inc.","Brooklyn","Sesame Flyers International, Inc.","718.693.0500","High School","3510 Church Avenue",11203,40.651066,-73.944555
"269",269,"After-School Programs","Out of School Time","P.S. 11 PURVIS J. BEHAN SCHOOL","Brooklyn","YMCA of Greater New York/Dodge YMCA","(718) 398-3134","Elementary","419 Waverly Avenue",11238,40.685491,-73.966291
"270",270,"After-School Programs,Jobs & Internships,Youth Employment","In-School Youth Employment (ISY)","Elmcor Youth and Adult Activities, Inc.","Queens","Elmcor Youth & Adult Activities, Inc.","718.651.0096","High School","33 16 108th Street",11368,40.757429,-73.860938
"271",271,"Reading & Writing,NDA Programs,English Language Program,ESOL,Family Literacy"," Adult Literacy","Jewish Community Council of Greater Coney Island, Inc.","Brooklyn","Jewish Community Council of Greater Coney Island, Inc.","(718) 449-5000 x 2237","16+","387 Kingston Avenue",11225,40.665708,-73.942532
"272",272,"After-School Programs","Out of School Time","H.S. 305 PABLO NERUDA ACADEMY","Bronx","OPUS Dance Theatre and Community Services Inc.","(646) 670-0516","High School","1980 Lafayette Avenue",10473,40.82229,-73.856167
"273",273,"Immigration Services,Immigrant Support Services","Domestic Violence Program","Safe Space - Family Resource Center (Jamaica)","Queens","Safe Space","718.785.9062","All Ages","90 25 161st Street",11432,40.705199,-73.799253
"274",274,"After-School Programs","Out of School Time","P.S. 127 MCKINLEY PARK SCHOOL","Brooklyn","Young Dancers In Repertory, Inc.","(347) 702-7155","Elementary","7805 7th Avenue",11228,40.624132,-74.018826
"275",275,"After-School Programs,NDA Programs,Youth Educational Support"," High-School Aged Youth","W. H. MAXWELL CAREER AND TECHNICAL EDUCATION HIGH SCHOOL (K6","Brooklyn","The Children's Art Carnival","(718) 951-5015"," High School","145 PENNSYLVANIA AVENUE",11207,40.674135,-73.89643
"276",276,"After-School Programs","Out of School Time","Beach Channel HS","Queens","Rockaway Development & Revitalization Corporation","(718) 945-6900","High School","100 00 Beach Channel Drive",11694,40.586066,-73.822624
"277",277,"NDA Programs,Senior Programs,Older Adult Program","Seniors","Council of Jewish Organization of Flatbush, Inc.","Brooklyn","St. Raymond Community Outreach","(718) 377-2900","Seniors","1658 Coney Island Avenue",11230,40.616964,-73.963703
"278",278,"Immigration Services,Immigrant Support Services","Legal Services - Immigrant Youth","Legal Aid - Juvenile Rights Division","Manhattan","The Legal Aid Society","212.577.3328","20-May","199 Water Street",10038,40.70727,-74.004314
"279",279,"NDA Programs,Senior Programs,Older Adult Program","Seniors","St. Luke's","Bronx","Variety Boys & Girls Club of Queens","(718) 542-0006","Seniors","3911 Barnes Avenue",10466,40.885201,-73.858541
"280",280,"After-School Programs","Out of School Time","Forest Hills (Jackson Heights)","Queens","Queens Community House, Inc","(718) 898-7461","MS/HS","74 09 37th Avenue",11372,40.748992,-73.891561
"281",281,"After-School Programs","Teen Action Program","IS 136 Charles O. Dewey","Brooklyn","SCO Family of Services","718.633.4823","13 to 21","4004 Fourth Avenue",11232,40.651977,-74.006862
"282",282,"Jobs & Internships,Youth Employment","Summer Youth Employment ","Queens OCFS","Queens","Henry Street Settlement, Inc. - Queens ","718-557-8861","14 to 24","168 25 Jamaica Avenue",11432,40.706582,-73.791811
"283",283,"After-School Programs,Beacon,NYCHA Community Center","Beacon Satellite","NYCHA PINK HOUSES","Brooklyn","East New York Development Corporation @ Louis H. Pink Community Center","(718) 964-9043","6 and up","2702 Linden Blvd",11208,40.669208,-73.864514
"284",284,"After-School Programs","Out of School Time","I.S. 49 WILLIAM GAYNOR  INTERM","Brooklyn","Sports and Arts In Schools Foundation, Inc.","(718) 387-7697","Middle School","223 Graham Avenue",11206,40.709941,-73.943641
"285",285,"After-School Programs","Out of School Time","I.S. 171 ABRAHAM LINCOLN SCHOOL","Brooklyn","Cypress Hills Local Development Corporation","(718) 235-1028","Middle School","528 Ridgewood Avenue",11208,40.68618,-73.869625
"286",286,"After-School Programs,Jobs & Internships,Youth Employment","Out-of-School Youth Employment (OSY)","Catholic Charities Neighborhood Services","Queens","Catholic Charities Neighborhood Services","718.726.9790 ext.127","16 to 21","23 40 Astoria Boulevard",11102,40.771582,-73.92375
"287",287,"After-School Programs,Summer Program,Summer Camp","Out of School Time","P.S. 31 WILLIAM T. DAVIS SCHOO","Staten Island","Jewish Community Center of Staten Island, Inc.","(718) 273-4820","OST","55 LAYTON AVENUE",10301,40.641595,-74.085135
"288",288,"After-School Programs","Out of School Time","Excel Program","Manhattan","Growth and Development Services, Inc.","(212) 740-7040","High School","216 Ft Washington Avenue",10032,40.842571,-73.942097
"289",289,"Jobs & Internships,Youth Employment","Summer Youth Employment ","SCO Family of Services","Brooklyn","SCO Family of Services","718-788-3500 ","14 to 24","345 43rd Street",11232,40.651013,-74.009514
"290",290,"After-School Programs,Summer Program,Summer Camp","Out of School Time","P.S. 18 EDWARD BUSH SCHOOL","Brooklyn","St. Nicholas Neighborhood Preservation Corporation","(718) 599-9224","OST","101 MAUJER STREET",11206,40.710609,-73.946977
"291",291,"After-School Programs","Out of School Time","PS 169-Bay Terrace 1","Queens","Samuel Field YM & YWHA, Inc.","(718) 423-6111","Elementary","18 25 212th Street",11360,40.782298,-73.779099
"292",292,"After-School Programs","Out of School Time","George Conliffe Center","Brooklyn","George C. Conliffe Child Care Center","(718) 778-1498","Elementary","1435 Prospect Place",11213,40.673175,-73.929039
"293",293,"After-School Programs,Summer Program,Summer Camp","Out of School Time","I.S. 311 ESSENCE SCHOOL","Brooklyn","SCO Family of Services","(718) 485-5130","OST","590 SHEFFIELD AVENUE",11207,40.662326,-73.894441
"294",294,"After-School Programs","Teen Action Program","Albert Shanker School for Visual and Performing Arts ","Queens","Jacob A. Riis Neighborhood Settlement, Inc.","718.204.6797","13 to 21","31 51 21st Street",11106,40.766264,-73.930709
"295",295,"After-School Programs","Out of School Time","P.S./I.S. 328 PHILLIS WHEATLEY","Brooklyn","Groundwork Inc.","(718) 346-2200","Middle School","330 Alabama Avenue",11207,40.668167,-73.897835
"296",296,"Reading & Writing,NDA Programs,English Language Program,Family Literacy,Adult Basic Education,ABE/GED"," Adult Literacy","IS 8 - R. S. Grossley Junior High School","Queens","SQPA-NY Southern Queens Park Association NY","(718) 276-4630","16+","108 35 167th Street",11433,40.69719,-73.787192
"297",297,"After-School Programs,Jobs & Internships,Youth Employment","In-School Youth Employment (ISY)","Rockaway Development & Revitalization Corporation","Queens","Rockaway Development & Revitalization Corporation","718.327.5300","High School","1920 Mott Avenue",11691,40.603907,-73.752262
"298",298,"After-School Programs,Summer Program,Summer Camp","Out of School Time","P.S. 81 THADDEUS STEVENS SCHOO","Brooklyn","SCO Family of Services","(718) 602-6082","OST","990 DEKALB AVENUE",11221,40.693161,-73.935765
"299",299,"After-School Programs,Summer Program,Summer Camp","Out of School Time","P.S. 197 OCEAN SCHOOL","Queens","YMCA of Greater New York/Cross Island","(917) 704-1239","OST","8 25 HICKSVILLE ROAD",11691,40.600199,-73.743968
"300",300,"After-School Programs,Summer Program,Summer Camp","Out of School Time","P.S. 18 JOHN GREENLEAF WHITTIE","Staten Island","United Activities Unlimited, Inc.","(718) 448-4834","OST","221 BROADWAY",10310,40.636587,-74.117509
"301",301,"After-School Programs","Out of School Time","Far Rockaway - Opt 2","Queens","Madison Square Boys & Girls Club","(718) 471-5453","Elem/MS/HS","426 Beach 40th Street",11691,40.596249,-73.772408
"302",302,"After-School Programs,NDA Programs,Youth Educational Support"," High-School Aged Youth","Jacobi Medical Center Nurses Residence/ NIDS Young Adult Center","Bronx","St. John The Baptist School","(718) 231-9800"," High School","1400 Pelham Parkway",10461,40.857427,-73.847079
"303",303,"After-School Programs,NDA Programs,Youth Educational Support"," High-School Aged Youth","Sauti Yetu Center for African Women","Bronx","Citizens Advice Bureau","(718) 665-2486"," High School","2417 Third Avenue",10451,40.808492,-73.930665
"304",304,"After-School Programs,Summer Program,Summer Camp","Out of School Time","P.S. 121 THE THROOP SCHOOL","Bronx","New York Junior Tennis League","(718) 231-3239","OST","2750 THROOP AVENUE",10469,40.86608,-73.850982
"305",305,"After-School Programs","Out of School Time","P.S. 92 HARRY T. STEWART SR. S","Queens","Coalition for Hispanic Family Services","(718) 497-6090","Elementary","99 01 34 AVENUE",11368,40.755418,-73.869017
"306",306,"Jobs & Internships,Youth Employment","Summer Youth Employment ","Community Association of Progressive Dominicans - Manhattan","Manhattan","Community Association of Progressive Dominicans - Manhattan","212-781-4955","14 to 24","2268 Amsterdam Avenue",10032,40.842691,-73.934876
"307",307,"After-School Programs","Out of School Time","Forest Hills 1( Forest Hills)","Queens","Queens Community House, Inc","(718) 592-5757","MS/HS","108 25 62nd Drive",11375,40.73591,-73.850212
"308",308,"NDA Programs,Immigration Services,Immigrant Support Services"," Immigrant","F.E.G.S Brooklyn Resource Center","Brooklyn","JHS 292 MARGARET S DOUGLAS (K292)","(212) 366-8531","Adults","938 Kings Highway",11223,40.607066,-73.962714
"309",309,"After-School Programs,Summer Program,Summer Camp","Out of School Time","Washington Houses","Manhattan","Union Settlement Association","(212) 828-6120","OST","1775 Third Avenue",10029,40.786574,-73.948303
"310",310,"Family Support,NDA Programs"," Housing","Legal Services NYC-Bronx","Bronx","Abigail Mejia Technology Center","(718) 928-3736","Adults","579 Courtlandt Avenue",10451,40.817397,-73.919178
"311",311,"After-School Programs","Out of School Time","Yeshiva Kehilath Yakov - Girls","Brooklyn","Yeshiva Kehilath Yakov","(718) 963-1212","Elementary","1402 40th Street",11218,40.63851,-73.984316
"312",312,"After-School Programs,Summer Program,Summer Camp","Out of School Time","KNOWLEDGE & POWER PREPARATORY","Queens","Safe Space","(718) 276-2481","OST","1045 Nameoke Street",11691,40.603622,-73.749097
"313",313,"After-School Programs","Out of School Time","Joel E. Smilow","Bronx","Madison Square Boys & Girls Club","(718) 328-3900","High School","1665 Hoe Avenue",10460,40.835837,-73.887567
"314",314,"After-School Programs","Out of School Time","Harry S. Truman HS (X455)","Bronx","Sports and Arts In Schools Foundation, Inc.","(718) 904-5457","High School","750 Baychester Avenue",10475,40.874091,-73.833904
"315",315,"Reading & Writing,NDA Programs,English Language Program,ESOL,Family Literacy"," Adult Literacy","Latin American Integration Center","Queens","Make the Road New York","(718) 418-7690 x 211","16+","71 24 Roosevelt Avenue",11372,40.746551,-73.894199
"316",316,"After-School Programs","Out of School Time","P.S./I.S. 124 OSMOND A. CHURCH","Queens","South Asian Youth Action","(347) 272-0740","Elementary","129 15 150 Avenue",11420,40.665058,-73.811701
"317",317,"After-School Programs,Jobs & Internships,Youth Employment","In-School Youth Employment (ISY)","Greater Ridgewood Youth Council, Inc.","Queens","Greater Ridgewood Youth Council, Inc.","718.456.5437","High School","62 04 Myrtle Avenue",11385,40.700894,-73.893211
"318",318,"After-School Programs,Summer Program,Summer Camp","Out of School Time","United Community Day Care","Brooklyn","United Community Day Care Center, Inc","(718) 385-1201","OST","613 New Lots Avenue",11207,40.664728,-73.886561
"319",319,"After-School Programs,NDA Programs,Youth Educational Support"," High-School Aged Youth","Jacob Riis Neighborhood Settlement House","Queens","Staten Island Community Center","(718) 784-7447"," High School","10 25 41st Avenue",11101,40.755488,-73.945328
"320",320,"After-School Programs","Out of School Time","M.S. 53 BRIAN PICCOLO SCHOOL","Queens","Rockaway Artist Alliance, Inc.","","Middle School","1045 Nameoke Street",11691,40.603622,-73.749097
"321",321,"After-School Programs,NDA Programs,Youth Educational Support"," High-School Aged Youth","Murray Bergtraum HS","New York","BCA Sunset Park Asian Senior Center","(212) 748-1225"," High School","411 Pearl Street",10038,40.711442,-74.000851
"322",322,"After-School Programs","Out of School Time","Arthur Ashe Institute","Brooklyn","Arthur Ashe Institute for Urban Health, Inc","(718) 270-2600","High School","450 Clarkson Avenue",11203,40.655743,-73.944598
"323",323,"After-School Programs","Beacon","IS 218","Brooklyn","Police Athletic League (PAL)","718.277.1928","6 and up","370 Fountain Avenue",11208,40.670724,-73.874208
"324",324,"After-School Programs","Out of School Time","P.S./I.S. 140 THE NATHAN STRAU","Manhattan","Educational Alliance, Inc.","(646) 214-1069","Elementary","123 RIDGE STREET",10002,40.71925,-73.983056
"325",325,"After-School Programs,Summer Program,Summer Camp","Out of School Time","P.S. 19 CURTIS SCHOOL","Staten Island","YMCA of Greater New York/Staten Island YMCA","(718) 889-3477","OST","780 POST AVENUE",10310,40.631214,-74.127101
"326",326,"Jobs & Internships,Youth Employment","Summer Youth Employment ","Jacob A. Riis Neighborhood Settlement, Inc.","Queens","Jacob A. Riis Neighborhood Settlement, Inc.","718-784-7447 ","14 to 24","10 25 41st Avenue",11101,40.755488,-73.945328
"327",327,"Family Support,NDA Programs"," Housing","RBSCC","Brooklyn","Red Hook Youth Court Internship","(718) 366-3800","Adults","217 Wyckoff Avenue",11237,40.702153,-73.915751
"328",328,"After-School Programs","Out of School Time","P.S./I.S. 266 P.S./I.S. 266","Queens","Samuel Field YM & YWHA, Inc.","(718) 479-3920","Middle School","7410 Commonwealth Boulevard",11426,40.746231,-73.727614
"329",329,"Family Support,NDA Programs"," Housing","Citizen","Bronx","I.S.117 JOSEPH H WADE (X117)","(718) 293-0727","Adults","632 Southern Boulevard",10455,40.812991,-73.90108
"330",330,"After-School Programs,NDA Programs,Adolescent Literacy,Youth Educational Support"," Middle School Youth","Queens Gateway to Health and Sciences Secondary School","Queens","SEBCO Father Banome Senior Housing","(212) 630-6980","Middle School","150 91 87th Road",11432,40.707527,-73.806412
"331",331,"Reading & Writing,NDA Programs,English Language Program,ESOL,Family Literacy"," Adult Literacy","Catholic Charities Neighborhood Services","Queens","Catholic Charities Neighborhood Services","(718) 726-9790 x 128","16+","35 33 104th Street",11368,40.75468,-73.864138
"332",332,"After-School Programs","Out of School Time","P.S. /I.S.298 DR. BETTY SHABAZ","Brooklyn","CAMBA  ","(718) 922-0796","Elementary","85 Watkins Street",11212,40.670986,-73.908194
"333",333,"After-School Programs","Teen Action Program","Isabella Geriatric Center, Inc.","New York","Isabella Geriatric Center, Inc.","212.342.9352","13 to 21","515 Audubon Avenue",10040,40.854783,-73.927909
"334",334,"After-School Programs","Out of School Time","M353 NEW HEIGHTS ACADEMY","Manhattan","Inwood House","(212) 234-2754","Middle School","1818 AMSTERDAM AVENUE",10031,40.828498,-73.945239
"335",335,"After-School Programs,Summer Program,Summer Camp","Out of School Time","P.S./H.S 80 MICHAEL J. PETRIDE","Staten Island","Police Athletic League, Inc.","(718) 390-0876","Elementary","715 Ocean Terrace",10301,40.608517,-74.102078
"336",336,"NDA Programs,Immigration Services,Immigrant Support Services"," Immigrant","Refugee and Immigrant Services","Brooklyn","Guardians of the Sick, Inc.","(718) 777-6326","Adults","1416 Ave
M ",11230,40.617962,-73.960396
"337",337,"After-School Programs,Jobs & Internships,Youth Employment","Out-of-School Youth Employment (OSY)","Sunnyside Community Services, Inc.","Queens","Sunnyside Community Service, Inc.","718.784.6173 ext. 429","16 to 21","43 31 39th Street",11104,40.74519,-73.925909
"338",338,"After-School Programs,NDA Programs,Youth Educational Support"," High-School Aged Youth","NEW YORK HARBOR SCHOOL (K551)","Brooklyn","Citizens Advice","(212) 748-8594"," High School","400 IRVING AVENUE",11237,40.69697,-73.910791
"339",339,"After-School Programs","Out of School Time","P.S. 1 P.S. 1 - BERGEN SCHOOL","Brooklyn","SCO Family of Services","(718) 788-3500","Elem/MS","309 47th Street",11220,40.649042,-74.012289
"340",340,"After-School Programs,Summer Program,Summer Camp","Out of School Time","P.S. 214 CADWALLADER COLDEN SC","Queens","Police Athletic League, Inc.","(718) 353-8457","OST","31 15 140 STREET",11354,40.770387,-73.828617
"341",341,"After-School Programs","Out of School Time","Edith & Carl Marks MS","Brooklyn","Edith and Carl Marks Jewish Community House of Bensonhurst","(718) 331-6800","Middle School","7802 Bay Parkway",11214,40.606369,-73.989235
"342",342,"After-School Programs","Out of School Time","04M435 MANHATTAN CENTER FOR SC","Manhattan","The Childrens Aid Society","(212) 876-6268","High School","280 Pleasant Avenue",10029,40.794476,-73.933565
"343",343,"After-School Programs,Summer Program,Summer Camp","Out of School Time","P.S. 200 BENSON SCHOOL","Brooklyn","YMCA of Greater New York/Prospect Park","(917) 842-7569","OST","1940 BENSON AVENUE",11214,40.603188,-74.001408
"344",344,"After-School Programs,Jobs & Internships,Youth Employment","In-School Youth Employment (ISY)","Chinese American Planning Council","Queens","Chinese American Planning Council","212.941.0920","High School","136 18 39th Avenue",11354,40.76033,-73.829831
"345",345,"Immigration Services,Immigrant Support Services,NDA Programs,NDA Immigrants","NDA Immigrants","Make the Road New York","Brooklyn","Make the Road New York","718-418-7690 X 205","Adult","391 Grove Street
Program Site ",11237,40.700955,-73.913163
"346",346,"After-School Programs","Teen Action Program","JHS 072 Catherine and Count Basie","Queens","The Child Center of NY","718.322.4953","13 to 21","133 25 Guy R Brewer Boulevard",11434,40.673769,-73.775951
"347",347,"Family Support,NDA Programs","Health Stat Initiative","Northern Manhattan Improvement Corporation","New York","Northern Manhattan Improvement Corporation","212.822.8344","All Ages","76 Wadsworth Ave",10033,40.847012,-73.93704
"348",348,"Family Support,NDA Programs"," Housing","Mothers on the Move","Bronx","Grand Street Settlement","(646) 459-3002","Adults","928 Intervale Ave",10459,40.820063,-73.896742
"349",349,"After-School Programs","Out of School Time","HS For Teaching Arts","Queens","Samuel Field YM & YWHA, Inc.","(718) 479-3920","High School","74 20 Commonwealth Boulevard",11426,40.746088,-73.727535
"350",350,"NDA Programs,Senior Programs,Older Adult Program","Seniors","Clinton Senior Housing","Bronx","Project Home","(718) 542-0006","Seniors","2070 Clinton Avenue",10457,40.847236,-73.888101
"351",351,"Jobs & Internships","Young Adult Internship Program","Wildcat Service Corporation","Bronx","Wildcat Service Corporation","718.617.1378","16 to 24","647 Bryant Avenue",10474,40.81319,-73.885181
"352",352,"After-School Programs","Out of School Time","P.S. 130 PARKSIDE SCHOOL","Brooklyn","University Settlement Society of New York, Inc","(917) 828-6377","Elementary","70 OCEAN PARKWAY",11218,40.648884,-73.975607
"353",353,"Family Support,NDA Programs"," Housing","Citizens Advice Bureau","Bronx","Castle Hill School (JHS 127)","(718) 293-0727","Adults","1477 Townsend Avenue",10452,40.841504,-73.915639
"354",354,"After-School Programs","Out of School Time","Italian American Civil","Brooklyn","Italian American Civil Rights League (Italian American Civil","(718) 642-2180","High School","1460 Pennsylvania Avenue",11239,40.646068,-73.879786
"355",355,"After-School Programs","Teen Action Program","IS 061 Leonardo Da Vinci","Queens","New York Junior Tennis League","718.786.7110 ext. 8126","13 to 21","98 50 50th Avenue",11368,40.742668,-73.863307
"356",356,"NDA Programs,Senior Programs,Older Adult Program","Seniors","BCA Sunset Park Asian Senior Center","Brooklyn","MS 216","(718) 438-0008","Seniors","5010 8th Avenue",11220,40.640998,-74.003848
"357",357,"After-School Programs,Summer Program,Summer Camp","Out of School Time","P.S. 207 ELIZABETH LEARY SCHOOL","Brooklyn","Bergen Beach Youth Organization","(917) 533-3724","Elementary","4011 FILLMORE AVENUE",11234,40.613353,-73.930129
"358",358,"After-School Programs","Beacon","MS 117","Bronx","Community Association Progressive Dominicans","718.466.1806","6 and up","1865 Morris Avenue",10453,40.848516,-73.908427
"359",359,"After-School Programs","Teen Action Program","Jewish Institute of Queens","Queens","Jewish Institute of Queens","718.426.9369 or 646.670.8952","13 to 21","60 05 Woodhaven Boulevard",11373,40.731256,-73.871561
"360",360,"Jobs & Internships,Youth Employment","Summer Youth Employment ","Chinese American Planning Council - Queens","Queens","Chinese American Planning Council - Queens ","718-358-8899  x132","14 to 24","136 18 39th Avenue
flr ",11354,40.76033,-73.829831
"361",361,"After-School Programs","Out of School Time","Arrow","Queens","Brooklyn Center For Urban Environment","(718) 788-8500","Elem/MS","35 30 35th Street",11106,40.756073,-73.925767
"362",362,"After-School Programs","Out of School Time","Nazareth Regional HS","Brooklyn","Police Athletic League, Inc.","(718) 763-1100","High School","475 57th Street",11220,40.64162,-74.015094
"363",363,"After-School Programs","Out of School Time","Saratoga Inn","Queens","Homes for the Homeless","(718) 244-0670","Elementary","175 15 Rockaway Boulevard",11434,40.657786,-73.77031
"364",364,"Immigration Services,Immigrant Support Services","Legal Services - Immigrant Youth","The Door","Manhattan","The Door - A Center of Alternatives","212-941-9090 ext. 3280","20-May","121 6th Avenue",10013,40.723903,-74.00469
"365",365,"NDA Programs,Senior Programs,Older Adult Program","Seniors","International Tower for Seniors","Queens","JHS 142 JOHN PHILIP SOUSA (X142)","(800) 624-8474","Seniors","90 20 170th Street",11432,40.708578,-73.790579
"366",366,"After-School Programs","Out of School Time","P.S. 36 ST. ALBANS SCHOOL","Queens","Charosa Foundation Corporation","(718) 723-1400","Elementary","187 01 Foch Boulevard",11412,40.690828,-73.763907
"367",367,"After-School Programs,Jobs & Internships,Youth Employment","Out-of-School Youth Employment (OSY)","Brooklyn Job Corps Academy","Brooklyn","Arbor Employment and Training","718.623.4031","16 to 21","585 DeKalb Avenue",11205,40.691223,-73.952765
"368",368,"After-School Programs,NDA Programs,Youth Educational Support"," High-School Aged Youth","PS 173","New York","Brooklyn Housing & Family Services","(212) 923-7766"," High School","306 Fort Washington Avenue",10033,40.845469,-73.940468
"369",369,"After-School Programs","Out of School Time","Mosholu Center 1 H.S.","Bronx","Mosholu Montefiore Community Center, Inc.","(718) 882-4000","High School","3450 Dekalb Avenue",10467,40.881486,-73.881226
"370",370,"Reading & Writing,NDA Programs,English Language Program,ESOL,Family Literacy"," Adult Literacy","Chinese American Planning Council","Brooklyn","Chinese American Planning Council","(212) 941-0041 x 302","16+","4812 9th Avenue",11220,40.640545,-74.000731
"371",371,"After-School Programs","Out of School Time","P.S. 217 COL. DAVID MARCUS SCHOOL","Brooklyn","Flatbush Development Corporation","(718) 859-3800","Elementary","1100 NEWKIRK AVENUE",11230,40.63398,-73.966558
"372",372,"Jobs & Internships,Youth Employment","Summer Youth Employment ","Youth Education Thru Sports","Manhattan","New York City Mission Society","212-368-8400","14 to 24","646 Malcolm X Blvd",10037,40.818813,-73.937414
"373",373,"NDA Programs,Senior Programs,Older Adult Program","Seniors","Vladeck Cares","New York","Stryckers Bay Neighborhood Council, Inc.","(212) 766-9200","Seniors","351 Madison Ave",10017,40.754503,-73.978026
"374",374,"Family Support,NDA Programs","Fatherhood Initiative","The New York Society for the Prevention of Cruelty to Children","New York","The New York Society for the Prevention of Cruelty to Children","212.233.5500","16 to 24","161 William Street",10038,40.710059,-74.005955
"375",375,"After-School Programs,NDA Programs,Youth Educational Support"," High-School Aged Youth","Pan American International High School (PAIHS)","Bronx","Citizens Advice Bureau","(718) 732-7523"," High School","1300 Boynton Avenue",10472,40.831601,-73.878912
"376",376,"After-School Programs,NDA Programs,Adolescent Literacy,Youth Educational Support"," Middle School Youth","BROOKLYN EXCELSIOR CHARTER (K731)","Brooklyn","SEBCO St Barnabas Senior Housing","(212) 630-9680","Middle School","856 QUINCY STREET",11221,40.689842,-73.925506
"377",377,"Reading & Writing,NDA Programs,English Language Program,ESOL,Family Literacy"," Adult Literacy","Jewish Community Council of Greater Coney Island, Inc.","Brooklyn","Jewish Community Council of Greater Coney Island, Inc.","(718) 449-5000 x 2237","16+","2600 Ocean Avenue",11229,40.598158,-73.951186
"378",378,"After-School Programs,Summer Program,Summer Camp","Out of School Time","P.S. 56 LOUIS DE SARIO SCHOOL","Staten Island","United Activities Unlimited, Inc.","(718) 987-8111","OST","250 KRAMER AVENUE",10309,40.542246,-74.214002
"379",379,"After-School Programs,Jobs & Internships,Youth Employment","In-School Youth Employment (ISY)","Chinese-American Planning Council, Inc/Brooklyn Branch","Brooklyn","Chinese American Planning Council","212.941.0920","High School","4101 8th Avenue",11232,40.64607,-73.998544
"380",380,"After-School Programs","Out of School Time","P.S. 150 P.S. 150","Queens","Sunnyside Community Service, Inc.","(718) 392-6365","Elementary","40 01 43rd Avenue",11104,40.745537,-73.923776
"381",381,"After-School Programs,NDA Programs,Youth Educational Support"," High-School Aged Youth","INTERNATIONAL HIGH SCHOOL AT PROSPECT HEIGHTS (K524)","Brooklyn","Park Slope Women's Shelter","(212) 226-2116"," High School","883 CLASSON AVENUE",11225,40.670349,-73.961695
"382",382,"After-School Programs,Summer Program,Summer Camp","Out of School Time","P.S. 239 P.S. 239","Queens","Greater Ridgewood Youth Council, Inc.","(718) 456-5437","OST","1715 Weirfield Street",11385,40.699149,-73.903799
"383",383,"After-School Programs","Out of School Time","Bnos Ahavas Israel","Brooklyn","National Society For Hebrew Day Schools","(718) 252-4446","High School","12 Franklin Avenue",11249,40.699034,-73.958945
"384",384,"After-School Programs,NDA Programs,Adolescent Literacy,Youth Educational Support"," Middle School Youth","IS 52","New York","Sunset Park Center","(212) 942-0043","Middle School","650 Academy Street",10034,40.866053,-73.924835
"385",385,"After-School Programs","Out of School Time","Brooklyn Prep","Brooklyn","St. Nicholas Neighborhood Preservation Corporation","(718) 599-9224","High School","257 6th Street",11215,40.672411,-73.987711
"386",386,"After-School Programs,Summer Program,Summer Camp","Out of School Time","Yeshiva Kehilath Yakov - Boys","Brooklyn","Yeshiva Kehilath Yakov","(718) 972-2900","OST","4706 10th Avenue",11219,40.640015,-73.997694
"387",387,"After-School Programs","Out of School Time","P.S. 163 FLUSHING HEIGHTS SCHOOL","Queens","New York Junior Tennis League","(347) 417-8189","Elementary","159 01 59th Avenue",11365,40.740565,-73.809131
"388",388,"After-School Programs","Out of School Time","P.S. 2 ALFRED ZIMBERG SCHOOL","Queens","Hellenic American Neighborhood Action Committee (HANAC)","(718) 728-1459","Elementary","75 10 21st Avenue",11370,40.770335,-73.894476
"389",389,"After-School Programs","Out of School Time","I.S. 254","Bronx","Community Association of Progressive Dominicans","(718) 220-8700","Middle School","2452 Washington Avenue",10458,40.858815,-73.890232
"390",390,"After-School Programs","Out of School Time","Harvey Milk HS","Manhattan","Hetrick-Martin Institute, Inc.","(212) 674-2400","High School","2 Astor Place",10003,40.730038,-73.992632
"391",391,"After-School Programs","Out of School Time","I.S. 311 ESSENCE SCHOOL","Brooklyn","SCO Family of Services","(718) 485-5130","Middle School","590 SHEFFIELD AVENUE",11207,40.662326,-73.894441
"392",392,"After-School Programs,Summer Program,Summer Camp","Out of School Time","Flatbush Club (middle school)","Brooklyn","Madison Square Boys & Girls Club","(718) 462-6100","OST","2245 Bedford Avenue",11226,40.649122,-73.955765
"393",393,"After-School Programs,Jobs & Internships,Youth Employment","Out-of-School Youth Employment (OSY)","YWCA of Queens","Queens","YWCA of Queens","718.353.4553","16 to 21","42 07 Parsons Boulevard",11355,40.757857,-73.819077
"394",394,"Jobs & Internships","Young Adult Internship Program","The Child Center of NY","Queens","The Child Center of NY, Inc","347.571.2441","16 to 24","163 18 Jamaica Avenue",11432,40.704799,-73.796524
"395",395,"After-School Programs","Out of School Time","United Community Day Care","Brooklyn","United Community Day Care Center, Inc","(718) 385-1201","Elementary","613 New Lots Avenue",11207,40.664728,-73.886561
"396",396,"After-School Programs","Out of School Time","P.S. 71 FOREST SCHOOL","Queens","Greater Ridgewood Youth Council, Inc.","(718) 456-5437","Elementary","62 85 Forest Avenue",11385,40.711203,-73.905286
"397",397,"After-School Programs","Beacon","IS 232","Brooklyn","Sesame Flyers International Inc.","718.221.8880","6 and up","905 Winthrop Avenue",11203,40.65843,-73.929076
"398",398,"After-School Programs,NDA Programs,Adolescent Literacy,Youth Educational Support"," Middle School Youth","Castle Hill School (JHS 127)","Bronx","SHoP Architects","(212) 652-2812","Middle School","1560 Purdy Street",10462,40.837931,-73.853524
"399",399,"After-School Programs","Out of School Time","BRONX LAB SCHOOL","Bronx","Federation Employment & Guidance Services (FEGS)","(718) 696-3700","High School","800 Gun Hill Road",10467,40.875953,-73.86197
"400",400,"Immigration Services,Immigrant Support Services","Services - Immigrant Families","Big Brothers/Big Sisters, Inc. (Activity Site)","Brooklyn","Big Brothers/Big Sisters, Inc.","212.994.7742","14-Nov","280 Shepherd Avenue",11208,40.677725,-73.881715
"401",401,"After-School Programs,Summer Program,Summer Camp","Out of School Time","C.E.S. 88 THE SIDNEY SILVERSTE","Bronx","New Settlement Apartments","(718) 538-8051","OST","1340 Sheridan Avenue",10456,40.837275,-73.913574
"402",402,"Reading & Writing,NDA Programs,Family Literacy","Family Literacy","Edith and Carl Marks Jewish Community House of Bensonhurst","Brooklyn","Edith and Carl Marks Jewish Community House of Bensonhurst","718-943-6325","A parent 16 Years Old or Older ","7802 Bay Parkway",11214,40.606369,-73.989235
"403",403,"After-School Programs","Out of School Time","C.E.S. 55 BENJAMIN FRANKLIN SC","Bronx","Supportive Childrens Advocacy Network (SCAN)","(718) 681-6227","Elementary","450 SAINT PAULS PLACE",10456,40.836404,-73.905014
"404",404,"After-School Programs,Jobs & Internships,Youth Employment","In-School Youth Employment (ISY)","Children's Arts & Science Workshops, Inc.","New York","Children's Arts & Science Workshops, Inc.","212.923.7766","High School","4271 Broadway",10033,40.850456,-73.935609
"405",405,"After-School Programs","Out of School Time","Salvation Army/Bushwick","Brooklyn","The Salvation Army","(212) 337-7254","High School","1151 Bushwick Avenue",11221,40.689133,-73.917483
"406",406,"After-School Programs,NDA Programs,Adolescent Literacy,Youth Educational Support"," Middle School Youth","MS 216","Bronx","Mount Hope Community Center","(718) 732-7523","Middle School","977 Fox Street",10459,40.822443,-73.893902
"407",407,"After-School Programs,NDA Programs,Adolescent Literacy,Youth Educational Support"," Middle School Youth","JHS 227 EDWARD B SHALLOW (K227)","Brooklyn","Highbridge Gardens","(718) 236-5266","Middle School","6500 16 AVENUE",11204,40.62191,-73.995022
"408",408,"NDA Programs,Senior Programs,Older Adult Program","Seniors","Riverstone Senior Life Services, Inc.","New York","Yeled V Yalda Community Center","(212) 927-5600","Seniors","99 Fort Washington Avenue",10032,40.83851,-73.943738
"409",409,"After-School Programs","Out of School Time","Brownsville Center","Brooklyn","The Salvation Army","(212) 337-7254","High School","280 Riverdale Avenue",11212,40.661364,-73.906124
"410",410,"After-School Programs","Teen Action Program","Pathways College Preparatory School: A College Board School","Queens","Sports and Arts In Schools Foundation, Inc.","718.454.5097 ","13 to 21","109 89 204 Street",11412,40.70646,-73.753579
"411",411,"Jobs & Internships,Youth Employment","Summer Youth Employment ","Mosholu Montefiore Community Center, Inc.","Bronx","Mosholu Montefiore Community Center, Inc.","718-882-4000  x279","14 to 24","3450 Dekalb Avenue",10467,40.881486,-73.881226
"412",412,"After-School Programs","Beacon","MS 45","Bronx","Good Shepherd Services","718.367.9577","6 and up","2502 Lorillard Place",10458,40.859034,-73.886913
"413",413,"After-School Programs,Summer Program,Summer Camp","Out of School Time","P.S. 346 ABE STARK SCHOOL","Brooklyn","New York Junior Tennis League","(718) 642-6538","OST","1400 Pennsylvania Ave",11239,40.64726,-73.881114
"414",414,"After-School Programs,NDA Programs,Youth Educational Support"," High-School Aged Youth","PERFORMING ARTS AND TECHNOLOGY HIGH SCHOOL (K507)","Brooklyn","PS 173","(718) 951-5015"," High School","400 PENNSYLVANIA AVENUE",11207,40.667456,-73.894747
"415",415,"After-School Programs,Beacon,NYCHA Community Center","Beacon Satellite","NYCHA RAVENSWOOD HOUSES","Queens","HANAC @Ravenswood Community Center","(718) 786-3131","6 and up","35 40 21st Street",11106,40.760808,-73.93592
"416",416,"After-School Programs","Out of School Time","YMCA","Queens","YMCA of Greater New York/Flushing","(718) 961-6880","High School","138 46 Northern Blvd",11354,40.764119,-73.827142
"417",417,"After-School Programs,Summer Program,Summer Camp","Out of School Time","Amistad Early Ed Center","Queens","Amistad Early Childhood Educational Center Inc","(718) 526-5911","Elementary","110 15 164th Place",11433,40.693627,-73.786987
"418",418,"After-School Programs","Out of School Time","New Life Child Develop. #2","Brooklyn","New Life Child Development Corporation","(718) 417-4206","Elementary","408 Grove Street",11237,40.701224,-73.912863
"419",419,"After-School Programs","Out of School Time","x343","Bronx","Just Us, Inc.","(718) 292-3883","Middle School","345 Brook Avenue",10454,40.81004,-73.917792
"420",420,"After-School Programs","Out of School Time","M.S. 135 FRANK D. WHALEN SCHOO","Bronx","Sports and Arts In Schools Foundation, Inc.","(212) 945-8373","Middle School","2441 Wallace Avenue",10467,40.862109,-73.864577
"421",421,"After-School Programs,Summer Program,Summer Camp","Out of School Time","P.S. 130 HERNANDO DESOTO SCHOOL","Manhattan","Chinese American Planning Council","(212) 431-8574","Elementary","143 Baxter Street",10013,40.718903,-73.998438
"422",422,"After-School Programs,Summer Program,Summer Camp","Out of School Time","P.S. 130 PARKSIDE SCHOOL","Brooklyn","University Settlement Society of New York, Inc","(917) 828-6377","OST","70 OCEAN PARKWAY",11218,40.648884,-73.975607
"423",423,"After-School Programs,Beacon,NYCHA Community Center","Beacon Satellite","NYCHA JOHNSON HOUSES","Manhattan","SCAN @James Weldon Johnson Community Center","(212) 289-8819","6 and up","1820 Lexington Avenue",10029,40.796524,-73.943167
"424",424,"After-School Programs","Out of School Time","C.S. 50 CLARA BARTON SCHOOL","Bronx","Sports and Arts In Schools Foundation, Inc.","(718) 589-7284","Elementary","1550 Vyse Avenue",10460,40.834157,-73.887512
"425",425,"After-School Programs,Summer Program,Summer Camp","Out of School Time","Haitian American (Sterling pl)","Brooklyn","Haitian American ","(718) 771-3800","OST","813 Sterling Place",11216,40.672613,-73.95161
"426",426,"After-School Programs,Beacon,NYCHA Community Center","Beacon Satellite","NYCHA SOUTH JAMAICA II HOUSES","Queens","Southern Queens Park Association @South Jamaica II Community Center","(718) 297-7237","6 and up","109 04 160th Street",11433,40.693957,-73.792027
"427",427,"After-School Programs","Beacon","MS 72","Queens","Child Center of New York ","718.276.7728","6 and up","133 25 Guy R Brewer Boulevard",11434,40.673769,-73.775951
"428",428,"Reading & Writing,NDA Programs,English Language Program,Family Literacy,Adult Basic Education,ABE/GED"," Adult Literacy","Turning Point","Brooklyn","Turning Point (aka Discipleship Outreach Ministries, Inc.)","(718) 360-8171","16+","5224 6th Avenue",11220,40.642482,-74.009477
"429",429,"After-School Programs","Out of School Time","P.S. 112 BRONXWOOD SCHOOL","Bronx","Phipps Community Development","(718) 654-6377","Elementary","1925 Schieffelin Ave",10466,40.885008,-73.843193
"430",430,"After-School Programs","Out of School Time","Community Counseling 2","Brooklyn","Community Counseling and Mediation","(718) 230-5100","Elementary","810 Classon Avenue",11238,40.672776,-73.960846
"431",431,"After-School Programs","Out of School Time","M.S. 210 ELIZABETH BLACKWELL S","Queens","YMCA of Greater New York/Cross Island","(718) 659-7710","Elementary","93 11 101 AVENUE",11416,40.683858,-73.84747
"432",432,"After-School Programs,Summer Program,Summer Camp","Out of School Time","P.S. 199 MAURICE FITZGERALD SC","Queens","Sunnyside Community Service, Inc.","(917) 843-7953","OST","39 20 48 AVENUE",11104,40.740088,-73.926214
"433",433,"After-School Programs","Beacon","PS 176","Queens","Federation Employment Guidance Services Inc. ","718.528.1743","6 and up","120 45 235th Street",11411,40.685492,-73.729982
"434",434,"After-School Programs","Beacon","IS 5","Queens","Sunnyside Community Service, Inc. ","718.429.8752","6 and up","50 40 Jacobus Street",11373,40.737718,-73.887429
"435",435,"NDA Programs,Senior Programs,Older Adult Program","Seniors","Elmhurst Jackson Heights Senior Center","Queens","The Child Center","(212) 677-4181","Seniors","75 01
Broadway ",11373,40.746172,-73.890208
"436",436,"After-School Programs","Teen Action Program","JHS 057 Whitelaw Reid (K057)","Brooklyn","Brooklyn Center For Urban Environment","718.788.8500 ext. 207","13 to 21","125 Stuyvesant Avenue",11221,40.691274,-73.933697
"437",437,"Immigration Services,Immigrant Support Services","Services - Immigrant Families","Big Brothers/Big Sisters, Inc. (Activity Site)","Queens","Big Brothers/Big Sisters, Inc.","212.994.7742","14-Nov","89 56 162nd Street",11432,40.705395,-73.798368
"438",438,"After-School Programs","Out of School Time","P.S. 260 BREUCKELEN SCHOOL","Brooklyn","Groundwork Inc.","(718) 346-2200","Elementary","875 Williams Avenue",11207,40.654031,-73.894854
"439",439,"After-School Programs","Out of School Time","PS 25-Eubie Blake (MS)","Brooklyn","CAMBA  ","(718) 573-7593","Middle School","787 Lafayette Avenue",11221,40.691037,-73.941342
"440",440,"Immigration Services,Immigrant Support Services,NDA Programs,NDA Immigrants","NDA Immigrats","Goodwill Industries of Greater New York & Northern NJ, Refugee and Immigrant Services (Program Site 1)","Brooklyn","Goodwill Industries of Greater New York","718- 339-0939 ","Adult","1416 Avenue
M ",11230,40.617962,-73.960396
