"","location_code","location_name","Location_Category_Description","primary_address_line_1","State_code","LONGITUDE","LATITUDE","NTA_Name","Principal_phone_number","fax_number","community_school_sup_name"
"1","K001","P.S. 001 The Bergen","Elementary","309 47 STREET","NY","-74.01142","40.648959","Sunset Park West","718-567-7661","718-567-9771","SKOP, ANITA"
"2","K002","Parkside Preparatory Academy","Junior High-Intermediate-Middle","655 PARKSIDE AVENUE","NY","-73.951575","40.656423","Prospect Lefferts Gardens-Wingate","718-462-6992","718-284-7717","ELLIS, CLARENCE"
"3","K003","P.S. 003 The Bedford Village","Elementary","50 JEFFERSON AVENUE","NY","-73.955219","40.682311","Clinton Hill","718-622-2960","718-623-3193","SAMUELS, KAMAR"
"4","K004","P.S. K004","Elementary","923 JEROME STREET","NY","-73.879276","40.6585","East New York","929-275-3937","718-927-3554","LOUISSAINT, KETLER"
"5","K005","P.S. 005 Dr. Ronald McNair","Elementary","820 HANCOCK STREET","NY","-73.92197","40.685241","Stuyvesant Heights","718-218-2444","718-218-2445","MARTIN, YOLANDA"
"6","K006","Norma Adams Clemons Academy","Elementary","43 SNYDER AVENUE","NY","-73.956279","40.648973","Erasmus","718-856-6560","718-856-7493","ELLIS, CLARENCE"
"7","K007","P.S. 007 Abraham Lincoln","Elementary","858 JAMAICA AVENUE","NY","-73.872983","40.689213","Cypress Hills-City Line","718-647-3600","718-827-4004","THOMAS MCBRYDE JR"
"8","K008","P.S. 008 Robert Fulton","K-8","37 HICKS STREET","NY","-73.992841","40.700709","Brooklyn Heights-Cobble Hill","718-834-6740","718-834-7690","SAMUELS, KAMAR"
"9","K009","P.S. 009 Teunis G. Bergen","Elementary","80 UNDERHILL AVENUE","NY","-73.966333","40.678554","Prospect Heights","718-638-3260","718-622-2961","SAMUELS, KAMAR"
"10","K010","Magnet School of Math, Science and Design Technolo","Elementary","511 7 AVENUE","NY","-73.985946","40.660912","Park Slope-Gowanus","718-965-1190","718-369-1736","SKOP, ANITA"
"11","K011","P.S. 011 Purvis J. Behan","Elementary","419 WAVERLY AVENUE","NY","-73.96589","40.685896","Clinton Hill","718-638-2661","718-622-3028","SAMUELS, KAMAR"
"12","K012","Dr. Jacqueline Peek-Davis School","Elementary","430 HOWARD AVENUE","NY","-73.920095","40.673124","Ocean Hill","718-953-4569","718-953-4428","ELLIS, CLARENCE"
"13","K013","P.S. 013 Roberto Clemente","Elementary","557 PENNSYLVANIA AVENUE","NY","-73.893328","40.664067","East New York (Pennsylvania Ave)","718-498-3717","718-345-2396","THOMAS MCBRYDE JR"
"14","K014","J.H.S. 014 Shell Bank","Junior High-Intermediate-Middle","2424 BATCHELDER STREET","NY","-73.938107","40.593232","Sheepshead Bay-Gerritsen Beach-Manhattan Beach","718-743-0220","718-769-8632","BOVE, JULIA"
"15","K015","P.S. 015 Patrick F. Daly","Elementary","71 SULLIVAN STREET","NY","-74.011864","40.677085","Carroll Gardens-Columbia Street-Red Hook","718-330-9280","718-596-2576","SKOP, ANITA"
"16","K016","P.S. 016 Leonard Dunkly","Elementary","157 WILSON STREET","NY","-73.962049","40.706069","Williamsburg","718-782-5352","718-486-8447","WINNICKI, ALICJA"
"17","K017","P.S. 017 Henry D. Woodworth","Elementary","208 NORTH  5 STREET","NY","-73.9573","40.715268","North Side-South Side","718-387-2929","718-302-2311","WINNICKI, ALICJA"
"18","K018","P.S. 018 Edward Bush","Elementary","101 MAUJER STREET","NY","-73.946695","40.71088","East Williamsburg","718-387-3241","718-599-7744","WINNICKI, ALICJA"
"19","K019","P.S. 019 Roberto Clemente","Elementary","325 SOUTH  3 STREET","NY","-73.954678","40.710107","North Side-South Side","718-387-7820","718-782-2446","WINNICKI, ALICJA"
"20","K020","P.S. 020 Clinton Hill","Elementary","225 ADELPHI STREET","NY","-73.970896","40.690742","Fort Greene","718-834-6744","718-243-0712","SAMUELS, KAMAR"
"21","K021","P.S. 021 Crispus Attucks","Elementary","180 CHAUNCEY STREET","NY","-73.926673","40.68035","Crown Heights North","718-493-9681","718-953-3980","MARTIN, YOLANDA"
"22","K022","P.S. 022","Elementary","443 ST MARKS AVENUE","NY","-73.960093","40.6771","Crown Heights North","718-857-4503","718-857-4464","SIMMONS, BUFFIE"
"23","K023","P.S. 023 Carter G. Woodson","Elementary","545 WILLOUGHBY AVENUE","NY","-73.947256","40.69447","Bedford","718-387-0375","718-302-2312","WINNICKI, ALICJA"
"24","K024","P.S. 024","Elementary","427 38 STREET","NY","-74.004533","40.652832","Sunset Park West","718-832-9366","718-832-9360","SKOP, ANITA"
"25","K025","P.S. 025 Eubie Blake School","Elementary","787 LAFAYETTE AVENUE","NY","-73.940749","40.691472","Stuyvesant Heights","718-574-2336","718-455-5838","MARTIN, YOLANDA"
"26","K026","P.S. 026 Jesse Owens","Elementary","1014 LAFAYETTE AVENUE","NY","-73.9317","40.6921","Stuyvesant Heights","718-919-5707","718-574-2803","MARTIN, YOLANDA"
"27","K026","P.S. 026 Jesse Owens","Elementary","1014 LAFAYETTE AVENUE","NY","-73.9317","40.6921","Stuyvesant Heights","718-919-5707","718-574-2803","MARTIN, YOLANDA"
"28","K027","Agnes Y. Humphrey School for Leadership","K-12 all grades","27 HUNTINGTON STREET","NY","-74.005151","40.677914","Carroll Gardens-Columbia Street-Red Hook","718-330-9285","718-596-4889","SKOP, ANITA"
"29","K028","P.S. 028 The Warren Prep Academy","Elementary","265 RALPH AVENUE","NY","-73.921099","40.680239","Stuyvesant Heights","718-467-2865","718-953-4189","MARTIN, YOLANDA"
"30","K029","P.S. 029 John M. Harrigan","Elementary","425 HENRY STREET","NY","-73.997447","40.686843","Carroll Gardens-Columbia Street-Red Hook","718-330-9277","718-596-1887","SKOP, ANITA"
"31","K030","P.S./I.S. 30 Mary White Ovington","K-8","7002 4TH AVENUE","NY","-74.02395","40.633598","Bay Ridge","718-491-8440","718-491-8445","COSTANTINO, KARINA"
"32","K031","P.S. 031 Samuel F. Dupont","Elementary","75 MESEROLE AVENUE","NY","-73.954139","40.72697","Greenpoint","718-383-8998","718-383-5652","WINNICKI, ALICJA"
"33","K032","P.S. 032 Samuel Mills Sprole","Elementary","317 HOYT STREET","NY","-73.991141","40.680159","Carroll Gardens-Columbia Street-Red Hook","718-222-6400","718-222-6405","SKOP, ANITA"
"34","K033","JHS 033 Mark Hopkins","Junior High-Intermediate-Middle","70 TOMPKINS AVENUE","NY","-73.9466","40.6971","Bedford","718-782-9500","718-387-3011","James Quail"
"35","K034","P.S. 034 Oliver H. Perry","Elementary","131 NORMAN AVENUE","NY","-73.949756","40.726378","Greenpoint","718-389-5842","718-389-0356","WINNICKI, ALICJA"
"36","K035","M.S. 035 Stephen Decatur","Junior High-Intermediate-Middle","272 MACDONOUGH STREET","NY","-73.935891","40.681528","Stuyvesant Heights","718-574-2345","718-452-1273","MARTIN, YOLANDA"
"37","K036","P.S. 36","K-12 all grades","2045 LINDEN BOULEVARD","NY","-73.887195","40.660465","East New York","718-272-6483","718-272-6287","LOUISSAINT, KETLER"
"38","K037","Beginning with Children Charter School II","K-8","215 HEYWARD STREET","NY","-73.953304","40.703996","Williamsburg","718-302-7700","NULL","NULL"
"39","K038","P.S. 038 The Pacific","Elementary","450 PACIFIC STREET","NY","-73.982826","40.684945","DUMBO-Vinegar Hill-Downtown Brooklyn-Boerum Hill","718-330-9305","718-802-9542","SKOP, ANITA"
"40","K039","P.S. 039 Henry Bristow","Elementary","417 6 AVENUE","NY","-73.982909","40.668644","Park Slope-Gowanus","718-330-9310","718-832-2010","SKOP, ANITA"
"41","K040","P.S. 040 George W. Carver","Elementary","265 RALPH AVENUE","NY","-73.921099","40.680239","Stuyvesant Heights","718-574-2353","718-453-0686","MARTIN, YOLANDA"
"42","K041","P.S. 041 Francis White","K-8","411 THATFORD AVENUE","NY","-73.906925","40.660455","Brownsville","718-495-7732","718-346-2141","PATE, MIATHERESA"
"43","K041","P.S. 041 Francis White","K-8","411 THATFORD AVENUE","NY","-73.906925","40.660455","Brownsville","718-495-7732","718-346-2141","PATE, MIATHERESA"
"44","K044","P.S. 044 Marcus Garvey","Elementary","432 MONROE STREET","NY","-73.940859","40.686213","Stuyvesant Heights","718-834-6939","718-574-8501","SAMUELS, KAMAR"
"45","K045","P.S./I.S. 045 Horace E. Greene","K-8","84 SCHAEFER STREET","NY","-73.91043","40.686424","Bushwick South","718-642-5360","718-574-1043","GORSKI, SHEILA"
"46","K046","P.S. 046 Edward C. Blum","Elementary","100 CLERMONT AVENUE","NY","-73.971644","40.69453","Fort Greene","718-834-7694","718-243-0726","SAMUELS, KAMAR"
"47","K048","P.S. 048 Mapleton","Elementary","6015 18 AVENUE","NY","-73.987165","40.621481","Borough Park","718-232-3873","718-232-3451","COSTANTINO, KARINA"
"48","K049","J.H.S. 049 William J. Gaynor","Junior High-Intermediate-Middle","223 GRAHAM AVENUE","NY","-73.9436","40.71","East Williamsburg","718-387-7697","718-302-2318","James Quail"
"49","K050","J.H.S. 050 John D. Wells","Junior High-Intermediate-Middle","183 SOUTH  3 STREET","NY","-73.960137","40.711915","North Side-South Side","718-387-4184","718-302-2320","WINNICKI, ALICJA"
"50","K051","M.S. 51 William Alexander","Junior High-Intermediate-Middle","350 5 AVENUE","NY","-73.98505","40.672358","Park Slope-Gowanus","718-369-7603","718-499-4948","SKOP, ANITA"
"51","K052","P.S. 052 Sheepshead Bay","Elementary","2675 EAST  29 STREET","NY","-73.940135","40.588372","Sheepshead Bay-Gerritsen Beach-Manhattan Beach","718-648-0882","718-648-4636","BOVE, JULIA"
"52","K053","P.S. K053","K-12 all grades","544 7TH AVENUE","NY","-73.988743","40.660805","Sunset Park West","718-832-3563","718-965-1734","LOUISSAINT, KETLER"
"53","K054","P.S. 054 Samuel C. Barnes","Elementary","195 SANDFORD STREET","NY","-73.952504","40.692616","Bedford","718-834-6752","718-852-8129","SAMUELS, KAMAR"
"54","K055","I.S. 055 Ocean Hill Brownsville","Junior High-Intermediate-Middle","2021 BERGEN STREET","NY","-73.9133","40.6741","Ocean Hill","718-495-7736","718-270-8725","Donald Conyers"
"55","K056","P.S. 056 Lewis H. Latimer","Elementary","170 GATES AVENUE","NY","-73.960536","40.684286","Clinton Hill","718-857-3149","718-783-7379","SAMUELS, KAMAR"
"56","K057","Whitelaw Reid Academy of Arts and Business","Junior High-Intermediate-Middle","125 STUYVESANT AVENUE","NY","-73.932254","40.691467","Stuyvesant Heights","718-574-2357","718-453-0577","MARTIN, YOLANDA"
"57","K058","P.S. 058 The Carroll","Elementary","330 SMITH STREET","NY","-73.995486","40.680379","Carroll Gardens-Columbia Street-Red Hook","718-330-9322","718-596-2969","SKOP, ANITA"
"58","K059","P.S. 059 William Floyd","Elementary","211 THROOP AVENUE","NY","-73.943279","40.697619","Stuyvesant Heights","718-443-3600","718-574-6634","WINNICKI, ALICJA"
"59","K061","M.S. 061 Dr. Gladstone H. Atwell","Junior High-Intermediate-Middle","400 EMPIRE BOULEVARD","NY","-73.949198","40.663605","Prospect Lefferts Gardens-Wingate","718-774-1002","718-467-4335","ELLIS, CLARENCE"
"60","K062","J.H.S. 062 Ditmas","Junior High-Intermediate-Middle","700 CORTELYOU ROAD","NY","-73.971153","40.638087","Kensington-Ocean Parkway","718-941-5450","718-693-7433","COSTANTINO, KARINA"
"61","K065","P.S. 065","Elementary","696 JAMAICA AVENUE","NY","-73.878353","40.686534","Cypress Hills-City Line","718-235-2223","718-235-2033","THOMAS MCBRYDE JR"
"62","K066","P.S. 66","K-8","845 EAST  96 STREET","NY","-73.907064","40.648749","Canarsie","718-922-3505","718-922-3105","WILKINS, BEVERLY"
"63","K067","P.S. 067 Charles A. Dorsey","Elementary","51 SAINT EDWARDS STREET","NY","-73.977674","40.695339","Fort Greene","718-834-6756","718-834-6719","SAMUELS, KAMAR"
"64","K068","I.S. 068 Isaac Bildersee","Junior High-Intermediate-Middle","956 EAST  82 STREET","NY","-73.911215","40.635388","Canarsie","718-241-4800","718-241-5582","WILKINS, BEVERLY"
"65","K069","P.S. 69 Vincent D. Grippo School","Elementary","6302 9TH AVENUE","NY","-74.009752","40.632392","Sunset Park East","718-630-3899","718-630-3894","COSTANTINO, KARINA"
"66","K069","P.S. 69 Vincent D. Grippo School","Elementary","6302 9TH AVENUE","NY","-74.009752","40.632392","Sunset Park East","718-630-3899","718-630-3894","COSTANTINO, KARINA"
"67","K071","Juan Morel Campos Secondary School","Secondary School","215 HEYWARD STREET","NY","-73.953304","40.703996","Williamsburg","718-302-7900","718-302-7979","WINNICKI, ALICJA"
"68","K072","P.S./I.S. 072 Annette P Goldman","K-8","605 SHEPHERD AVENUE","NY","-73.879131","40.669358","East New York","718-345-4100","718-927-2160","MILLS, ROSE MARIE"
"69","K073","P.S. 073 Thomas S. Boyland","K-8","251 MCDOUGAL STREET","NY","-73.910719","40.680679","Ocean Hill","718-573-0288","718-455-1835","PATE, MIATHERESA"
"70","K075","P.S. 075 Mayda Cortiella","Elementary","95 GROVE STREET","NY","-73.921336","40.693261","Bushwick South","718-574-0244","718-574-1051","GORSKI, SHEILA"
"71","K077","P.S. K077","K-12 all grades","62 PARK PLACE","NY","-73.976648","40.678809","Park Slope-Gowanus","718-789-1191","718-857-2667","LOUISSAINT, KETLER"
"72","K078","J.H.S. 078 Roy H. Mann","Junior High-Intermediate-Middle","1420 EAST  68 STREET","NY","-73.912914","40.620537","Georgetown-Marine Park-Bergen Beach-Mill Basin","718-763-4701","718-251-3439","BOVE, JULIA"
"73","K081","P.S. 081 Thaddeus Stevens","Elementary","990 DEKALB AVENUE","NY","-73.935123","40.692866","Stuyvesant Heights","718-574-2365","718-919-9872","MARTIN, YOLANDA"
"74","K084","P.S. 084 Jose De Diego","K-8","250 BERRY STREET","NY","-73.963808","40.715089","North Side-South Side","718-384-8063","718-302-2313","WINNICKI, ALICJA"
"75","K086","P.S. 086 The Irvington","Elementary","220 IRVING AVENUE","NY","-73.917804","40.700595","Bushwick North","718-574-0252","718-919-1839","GORSKI, SHEILA"
"76","K088","J.H.S. 088 Peter Rouget","Junior High-Intermediate-Middle","544 7TH AVENUE","NY","-73.988743","40.660805","Sunset Park West","718-788-4482","718-768-0213","SKOP, ANITA"
"77","K089","P.S. 089 Cypress Hills","K-8","265 WARWICK STREET","NY","-73.886712","40.677707","East New York","718-964-1180","718-964-1185","THOMAS MCBRYDE JR"
"78","K090","P.S. 90 Edna Cohen School","Elementary","2840 WEST  12 STREET","NY","-73.980387","40.578192","West Brighton","718-787-3333","718-787-3335","DIMOLA, ISABEL"
"79","K091","P.S. 091 The Albany Avenue School","Elementary","532 ALBANY AVENUE","NY","-73.940707","40.661806","Prospect Lefferts Gardens-Wingate","718-756-0243","718-221-1316","ELLIS, CLARENCE"
"80","K092","P.S. 092 Adrian Hegeman","Elementary","601 PARKSIDE AVENUE","NY","-73.95381","40.656276","Prospect Lefferts Gardens-Wingate","718-462-2087","718-284-8289","ELLIS, CLARENCE"
"81","K093","P.S. 093 William H. Prescott","Elementary","31 NEW YORK AVENUE","NY","-73.946381","40.679079","Crown Heights North","718-604-7363","718-771-1369","SAMUELS, KAMAR"
"82","K094","P.S. 094 The Henry Longfellow","Elementary","5010 6 AVENUE","NY","-74.008795","40.64373","Sunset Park East","718-435-6034","718-871-6251","SKOP, ANITA"
"83","K095","P.S. 095 The Gravesend","K-8","345 VAN SICKLEN STREET","NY","-73.974664","40.595996","Gravesend","718-449-5050","718-449-3047","DIMOLA, ISABEL"
"84","K096","I.S. 096 Seth Low","Junior High-Intermediate-Middle","99 AVENUE P","NY","-73.984985","40.608135","Bensonhurst East","718-236-1344","718-236-2397","DIMOLA, ISABEL"
"85","K097","P.S. 97 The Highlawn","Elementary","1855 STILLWELL AVENUE","NY","-73.98557","40.601191","Bensonhurst East","718-627-7550","718-627-7555","DIMOLA, ISABEL"
"86","K098","I.S. 98 Bay Academy","Junior High-Intermediate-Middle","1401 EMMONS AVENUE","NY","-73.954047","40.583893","Sheepshead Bay-Gerritsen Beach-Manhattan Beach","718-891-9005","718-646-7250","DIMOLA, ISABEL"
"87","K099","P.S. 099 Isaac Asimov","K-8","1120 EAST  10 STREET","NY","-73.966031","40.621474","Ocean Parkway South","718-338-9201","718-951-0418","DIMOLA, ISABEL"
"88","K100","P.S. 100 The Coney Island School","Elementary","2951 WEST  3 STREET","NY","-73.97083","40.577591","West Brighton","718-382-2760","718-382-2765","DIMOLA, ISABEL"
"89","K101","P.S. 101 The Verrazano","Elementary","2360 BENSON AVENUE","NY","-73.991962","40.597379","Bensonhurst East","718-372-0221","718-372-1873","DIMOLA, ISABEL"
"90","K102","P.S. 102 The Bayview","Elementary","211 72 STREET","NY","-74.028758","40.634318","Bay Ridge","718-748-7404","718-836-9265","COSTANTINO, KARINA"
"91","K103","Satellite Three","Junior High-Intermediate-Middle","170 GATES AVENUE","NY","-73.960536","40.684286","Clinton Hill","718-789-5835","718-789-5814","FREEMAN, BARBARA"
"92","K104","P.S./I.S. 104 The Fort Hamilton School","K-8","9115 5 AVENUE","NY","-74.028492","40.618077","Bay Ridge","718-836-4630","718-836-9412","COSTANTINO, KARINA"
"93","K105","P.S. 105 The Blythebourne","Elementary","1031 59 STREET","NY","-74.003635","40.63332","Borough Park","718-438-3230","718-853-9633","COSTANTINO, KARINA"
"94","K106","P.S. 106 Edward Everett Hale","Elementary","1328 PUTNAM AVENUE","NY","-73.913378","40.693318","Bushwick South","718-574-0261","718-574-1054","GORSKI, SHEILA"
"95","K107","P.S. 107 John W. Kimball","Elementary","1301 8 AVENUE","NY","-73.981181","40.662945","Park Slope-Gowanus","718-499-2054","718-499-4019","SKOP, ANITA"
"96","K108","P.S. 108 Sal Abbracciamento","Elementary","200 LINWOOD STREET","NY","-73.884348","40.681295","Cypress Hills-City Line","718-277-7010","718-827-4137","THOMAS MCBRYDE JR"
"97","K109","P.S. 109","K-8","1001 EAST  45 STREET","NY","-73.933099","40.635842","East Flatbush-Farragut","718-693-3426","718-693-3072","BOVE, JULIA"
"98","K109","P.S. 109","K-8","1001 EAST  45 STREET","NY","-73.933099","40.635842","East Flatbush-Farragut","718-693-3426","718-693-3072","BOVE, JULIA"
"99","K110","P.S. 110 The Monitor","Elementary","124 MONITOR STREET","NY","-73.941926","40.723743","Greenpoint","718-383-7600","718-383-5053","WINNICKI, ALICJA"
"100","K112","P.S. 112 Lefferts Park","Elementary","7115 15 AVENUE","NY","-74.000565","40.619417","Bensonhurst West","718-232-0685","718-232-3609","COSTANTINO, KARINA"
"101","K113","M.S. 113 Ronald Edmonds Learning Center","Junior High-Intermediate-Middle","300 ADELPHI STREET","NY","-73.971474","40.688769","Fort Greene","718-834-6734","718-596-2802","SAMUELS, KAMAR"
"102","K114","P.S. 114 Ryder Elementary","Elementary","1077 REMSEN AVENUE","NY","-73.90788","40.642684","Canarsie","718-257-4428","718-649-5216","WILKINS, BEVERLY"
"103","K115","P.S. 115 Daniel Mucatel School","Elementary","1500 EAST  92 STREET","NY","-73.897896","40.634861","Canarsie","718-241-1000","718-209-1714","WILKINS, BEVERLY"
"104","K116","P.S. 116 Elizabeth L Farrell","Elementary","515 KNICKERBOCKER AVENUE","NY","-73.916563","40.698077","Bushwick North","718-821-4623","718-821-0363","GORSKI, SHEILA"
"105","K117","J.H.S. 117 Francis Scott Key","Junior High-Intermediate-Middle","300 WILLOUGHBY AVENUE","NY","-73.9588","40.6926","Clinton Hill","718-230-5400","718-622-3570","James Machen"
"106","K118","The Maurice Sendak Community School","Elementary","211 8TH STREET","NY","-73.987602","40.671145","Park Slope-Gowanus","718-840-5660","718-840-5666","SKOP, ANITA"
"107","K119","P.S. 119 Amersfort","Elementary","3829 AVENUE K","NY","-73.938733","40.626038","Flatlands","718-377-7696","718-338-0694","BOVE, JULIA"
"108","K120","P.S. 120 Carlos Tapia","Elementary","18 BEAVER STREET","NY","-73.937888","40.700819","Bushwick South","718-455-1000","718-574-6637","WINNICKI, ALICJA"
"109","K121","P.S. 121 Nelson A. Rockefeller","K-8","5301 20 AVENUE","NY","-73.978472","40.622671","Borough Park","718-377-8845","718-252-4075","DIMOLA, ISABEL"
"110","K122","Pathways in Technology Early College High School (","High school","150 ALBANY AVENUE","NY","-73.939282","40.675905","Crown Heights North","718-221-1593","718-221-1781","NULL"
"111","K123","P.S. 123 Suydam","Elementary","100 IRVING AVENUE","NY","-73.922388","40.704076","Bushwick North","718-821-4810","718-821-0858","GORSKI, SHEILA"
"112","K124","P.S. 124 Silas B. Dutcher","Elementary","515 4 AVENUE","NY","-73.99062","40.667464","Park Slope-Gowanus","718-788-0246","718-965-9558","SKOP, ANITA"
"113","K125","Success Academy Charter School - Bed-Stuy 2","Elementary","211 THROOP AVENUE","NY","-73.943279","40.697619","Stuyvesant Heights","718-704-1439","646-349-3972","NULL"
"114","K126","John Ericsson Middle School 126","Junior High-Intermediate-Middle","424 LEONARD STREET","NY","-73.947932","40.719818","Greenpoint","718-782-2527","718-302-2319","WINNICKI, ALICJA"
"115","K127","P.S. 127 Mckinley Park","Elementary","7805 7 AVENUE","NY","-74.018429","40.623687","Dyker Heights","718-833-2323","718-836-9427","COSTANTINO, KARINA"
"116","K128","P.S. 128 Bensonhurst","Elementary","2075 84 STREET","NY","-73.995084","40.60498","Bensonhurst West","718-373-5900","718-266-6254","DIMOLA, ISABEL"
"117","K129","Success Academy Charter School - Cobble Hill","K-8","284 BALTIC STREET","NY","-73.993293","40.685006","DUMBO-Vinegar Hill-Downtown Brooklyn-Boerum Hill","718-704-1460","646-478-9383","NULL"
"118","K130","P.S. 130 The Parkside","Elementary","70 OCEAN PARKWAY","NY","-73.976053","40.648924","Windsor Terrace","718-686-1940","718-854-9756","SKOP, ANITA"
"119","K131","P.S. 131 Brooklyn","Elementary","4305 FT HAMILTON PARKWAY","NY","-73.993247","40.640728","Borough Park","718-431-1960","718-431-1970","SKOP, ANITA"
"120","K132","P.S. 132 The Conselyea School","Elementary","320 MANHATTAN AVENUE","NY","-73.945663","40.714772","East Williamsburg","718-599-7301","718-599-7417","WINNICKI, ALICJA"
"121","K133","P.S. 133 William A. Butler","Elementary","610 BALTIC STREET","NY","-73.980455","40.679916","Park Slope-Gowanus","718-398-5320","718-385-5325","SAMUELS, KAMAR"
"122","K134","P.S. K134","Elementary","4001 18 AVENUE","NY","-73.97318","40.632145","Flatbush","718-436-7200","718-686-2205","BOVE, JULIA"
"123","K135","P.S. 135 Sheldon A. Brookner","Elementary","684 LINDEN BOULEVARD","NY","-73.932949","40.653093","East Flatbush-Farragut","718-693-4363","718-941-0847","WILKINS, BEVERLY"
"124","K136","I.S. 136 Charles O. Dewey","Junior High-Intermediate-Middle","4004 4 AVENUE","NY","-74.007596","40.652127","Sunset Park West","718-840-1950","718-840-1955","SKOP, ANITA"
"125","K137","P.S./I.S. 137 Rachel Jean Mitchell","Elementary","121 SARATOGA AVENUE","NY","-73.916641","40.682248","Ocean Hill","718-453-2926","718-453-5363","PATE, MIATHERESA"
"126","K138","P.S. 138 Brooklyn","K-8","760 PROSPECT PLACE","NY","-73.951559","40.673943","Crown Heights North","718-467-0800","718-953-3422","ELLIS, CLARENCE"
"127","K138","P.S. 138 Brooklyn","K-8","760 PROSPECT PLACE","NY","-73.951559","40.673943","Crown Heights North","718-467-0800","718-953-3422","ELLIS, CLARENCE"
"128","K139","P.S. 139 Alexine A. Fenty","Elementary","330 RUGBY ROAD","NY","-73.965862","40.64134","Flatbush","718-282-5254","718-940-1205","BOVE, JULIA"
"129","K140","P.S. K140","K-8","141 MACON STREET","NY","-73.9456","40.68192","Bedford","718-783-4842","718-783-4869","LOUISSAINT, KETLER"
"130","K141","P.S. K141","K-12 all grades","655 PARKSIDE AVENUE","NY","-73.951575","40.656423","Prospect Lefferts Gardens-Wingate","718-941-0320","718-941-3152","LOUISSAINT, KETLER"
"131","K142","JHS 142","Junior High-Intermediate-Middle","610 HENRY STREET","NY","-74.0014","40.6801","Carroll Gardens-Columbia Street-Red Hook","718-923-4600","718-923-4620","Rosemary Stuart"
"132","K143","M.S. 143 Performing & Fine Arts","Junior High-Intermediate-Middle","800 GATES AVENUE","NY","-73.932","40.6883","Stuyvesant Heights","718-574-2424","718-453-0383","Evelyn Santiago"
"133","K145","P.S. 145 Andrew Jackson","Elementary","100 NOLL STREET","NY","-73.932388","40.701107","Bushwick South","718-821-4823","718-417-3453","GORSKI, SHEILA"
"134","K146","The Brooklyn New School, P.S. 146","Elementary","610 HENRY STREET","NY","-74.002022","40.679462","Carroll Gardens-Columbia Street-Red Hook","718-923-4750","718-923-4780","SKOP, ANITA"
"135","K147","P.S. 147 Isaac Remsen","Elementary","325 BUSHWICK AVENUE","NY","-73.93879","40.705005","Bushwick South","718-497-0326","718-628-4988","WINNICKI, ALICJA"
"136","K149","P.S. 149 Danny Kaye","Elementary","700 SUTTER AVENUE","NY","-73.89276","40.669361","East New York (Pennsylvania Ave)","718-688-7620","718-345-8118","THOMAS MCBRYDE JR"
"137","K150","P.S. 150 Christopher","Elementary","364 SACKMAN STREET","NY","-73.90514","40.668768","Brownsville","718-495-7746","718-922-3785","PATE, MIATHERESA"
"138","K151","P.S. 151 Lyndon B. Johnson","Elementary","763 KNICKERBOCKER AVENUE","NY","-73.908242","40.693432","Bushwick North","718-326-6360","718-326-6364","GORSKI, SHEILA"
"139","K152","School of Science & Technology","Elementary","725 EAST  23 STREET","NY","-73.954269","40.632619","Flatbush","718-434-5222","718-859-5965","BOVE, JULIA"
"140","K152","School of Science & Technology","Elementary","725 EAST  23 STREET","NY","-73.954269","40.632619","Flatbush","718-434-5222","718-859-5965","BOVE, JULIA"
"141","K153","P.S. 153 Homecrest","Elementary","1970 HOMECREST AVENUE","NY","-73.960027","40.601179","Homecrest","718-375-4484","718-375-4439","DIMOLA, ISABEL"
"142","K154","The Windsor Terrace School","Elementary","1625 11 AVENUE","NY","-73.975967","40.657002","Windsor Terrace","718-768-0057","718-832-2573","SKOP, ANITA"
"143","K155","P.S./ I.S. 155 Nicholas Herkimer","K-8","1355 HERKIMER STREET","NY","-73.908682","40.677634","Ocean Hill","718-240-4340","718-345-9064","PATE, MIATHERESA"
"144","K156","P.S. 156 Waverly","Elementary","104 SUTTER AVENUE","NY","-73.91788","40.665553","Brownsville","718-498-2811","718-346-2804","PATE, MIATHERESA"
"145","K157","P.S./I.S. 157 The Benjamin Franklin Health & Scien","K-8","850 KENT AVENUE","NY","-73.959999","40.695397","Bedford","718-622-9285","718-398-4155","WINNICKI, ALICJA"
"146","K158","P.S. 158 Warwick","Elementary","400 ASHFORD STREET","NY","-73.885214","40.67259","East New York","718-277-6116","718-827-4300","THOMAS MCBRYDE JR"
"147","K159","P.S. 159 Isaac Pitkin","Elementary","2781 PITKIN AVENUE","NY","-73.869705","40.676111","East New York","718-277-4828","718-827-4531","THOMAS MCBRYDE JR"
"148","K160","P.S. 160 William T. Sampson","Elementary","5105 Fort Hamilton Parkway","NY","-73.999045","40.636932","Borough Park","718-438-0337","718-871-7920","COSTANTINO, KARINA"
"149","K161","P.S. 161 The Crown","Elementary","330 CROWN STREET","NY","-73.949243","40.665757","Crown Heights South","718-756-3100","718-953-3605","ELLIS, CLARENCE"
"150","K162","J.H.S. 162 The Willoughby","Junior High-Intermediate-Middle","1390 WILLOUGHBY AVENUE","NY","-73.919643","40.706816","Bushwick North","718-821-4860","718-821-1728","GORSKI, SHEILA"
"151","K163","P.S. 163 Bath Beach","K-8","109 BAY 14TH STREET","NY","-74.007469","40.606739","Bath Beach","718-236-9003","718-259-3042","COSTANTINO, KARINA"
"152","K164","P.S. 164 Caesar Rodney","Elementary","4211 14 AVENUE","NY","-73.985739","40.637101","Borough Park","718-854-4100","718-853-9306","COSTANTINO, KARINA"
"153","K165","P.S. 165 Ida Posner","Elementary","76 LOTT AVENUE","NY","-73.910938","40.657061","Brownsville","718-495-7759","718-345-8255","PATE, MIATHERESA"
"154","K166","J.H.S. 166 George Gershwin","Junior High-Intermediate-Middle","800 VAN SICLEN AVE","NY","-73.885704","40.659934","East New York","718-649-0765","718-927-2172","STALLINGS-HARTE, JOYCE"
"155","K167","P.S. 167 The Parkway","Elementary","1025 EASTERN PARKWAY","NY","-73.934316","40.669557","Crown Heights North","718-774-2640","718-953-1954","ELLIS, CLARENCE"
"156","K168","The Brooklyn School for Math and Research","High school","400 IRVING AVENUE","NY","-73.911751","40.696457","Bushwick North","718-381-7100","718-381-9897","NULL"
"157","K169","P.S. 169 Sunset Park","Elementary","4305 7 AVENUE","NY","-74.0017","40.645825","Sunset Park East","718-853-3224","718-633-9621","SKOP, ANITA"
"158","K170","Ralph A. Fabrizio School","Elementary","619 72ND STREET","NY","-74.018719","40.630373","Bay Ridge","718-491-8400","718-491-8405","COSTANTINO, KARINA"
"159","K170","Ralph A. Fabrizio School","Elementary","619 72ND STREET","NY","-74.018719","40.630373","Bay Ridge","718-491-8400","718-491-8405","COSTANTINO, KARINA"
"160","K171","I.S. 171 Abraham Lincoln","Junior High-Intermediate-Middle","528 RIDGEWOOD AVENUE","NY","-73.869434","40.685852","Cypress Hills-City Line","718-647-0111","718-827-5834","THOMAS MCBRYDE JR"
"161","K172","P.S. 172 Beacon School of Excellence","Elementary","825 4 AVENUE","NY","-74.000191","40.657682","Sunset Park West","718-965-4200","718-965-2468","SKOP, ANITA"
"162","K174","P.S. 174 Dumont","K-8","574 DUMONT AVENUE","NY","-73.897604","40.665446","East New York (Pennsylvania Ave)","718-345-1223","718-345-8808","STALLINGS-HARTE, JOYCE"
"163","K176","P.S. 176 Ovington","Elementary","1225 69 STREET","NY","-74.005205","40.624835","Dyker Heights","718-236-7755","718-331-9188","COSTANTINO, KARINA"
"164","K177","P.S. 177 The Marlboro","Elementary","346 AVENUE P","NY","-73.974425","40.608169","Bensonhurst East","718-375-9506","718-375-4450","DIMOLA, ISABEL"
"165","K178","P.S. 178 Saint Clair Mckelway","K-8","2163 DEAN STREET","NY","-73.915337","40.67538","Ocean Hill","718-495-7768","718-495-2304","PATE, MIATHERESA"
"166","K179","P.S. 179 Kensington","Elementary","202 AVENUE C","NY","-73.97726","40.640127","Kensington-Ocean Parkway","718-438-4010","718-871-7484","COSTANTINO, KARINA"
"167","K180","The SEEALL Academy","K-8","5601 16 AVENUE","NY","-73.98925","40.626454","Borough Park","718-851-8070","718-853-9308","COSTANTINO, KARINA"
"168","K181","P.S. 181 Brooklyn","K-8","1023 NEW YORK AVENUE","NY","-73.945883","40.648217","East Flatbush-Farragut","718-462-5298","718-284-5053","ELLIS, CLARENCE"
"169","K182","Success Academy Charter School - Williamsburg","Elementary","183 SOUTH  3 STREET","NY","-73.960137","40.711915","North Side-South Side","718-704-1419","646-349-5421","NULL"
"170","K183","P.S. 183 Daniel Chappie James","K-8","76 RIVERDALE AVENUE","NY","-73.9139","40.6602","Brownsville","718-495-0952","718-495-1134","Donald Conyers"
"171","K184","P.S. 184 Newport","K-8","273 NEWPORT STREET","NY","-73.905004","40.660385","Brownsville","718-495-7776","718-385-4655","PATE, MIATHERESA"
"172","K185","P.S. 185 Walter Kassenbrock","Elementary","8601 RIDGE BOULEVARD","NY","-74.033429","40.623598","Bay Ridge","718-745-6610","718-836-9631","COSTANTINO, KARINA"
"173","K186","P.S. 186 Dr. Irving A Gladstone","Elementary","7601 19 AVENUE","NY","-73.994258","40.610917","Bensonhurst West","718-236-7071","718-331-9181","COSTANTINO, KARINA"
"174","K187","The Christa McAuliffe School\I.S. 187","Junior High-Intermediate-Middle","1171 65 STREET","NY","-74.003883","40.627929","Dyker Heights","718-236-3394","718-236-3638","COSTANTINO, KARINA"
"175","K188","P.S. 188 Michael E. Berdy","Elementary","3314 NEPTUNE AVENUE","NY","-74.000489","40.576733","Seagate-Coney Island","718-265-7580","718-265-7589","DIMOLA, ISABEL"
"176","K189","P.S. 189 The Bilingual Center","K-8","1100 EAST NEW YORK AVENUE","NY","-73.925435","40.665228","Brownsville","718-756-0210","718-604-1865","ELLIS, CLARENCE"
"177","K190","P.S. 190 Sheffield","Elementary","590 SHEFFIELD AVENUE","NY","-73.894877","40.662243","East New York (Pennsylvania Ave)","718-346-8780","718-345-8765","THOMAS MCBRYDE JR"
"178","K191","P.S. 191 Paul Robeson","Elementary","1600 PARK PLACE","NY","-73.924127","40.67173","Crown Heights North","718-756-1206","718-756-5417","ELLIS, CLARENCE"
"179","K192","P.S. 192 - The Magnet School for Math and Science","K-8","4715 18 AVENUE","NY","-73.97954","40.6288","Borough Park","718-633-3061","718-871-8721","COSTANTINO, KARINA"
"180","K193","P.S. 193 Gil Hodges","Elementary","2515 AVENUE L","NY","-73.950321","40.62208","Midwood","718-338-9011","718-338-9074","BOVE, JULIA"
"181","K194","P.S. 194 Raoul Wallenberg","Elementary","3117 AVENUE W","NY","-73.934163","40.598069","Sheepshead Bay-Gerritsen Beach-Manhattan Beach","718-648-8804","718-934-0244","BOVE, JULIA"
"182","K195","P.S. 195 Manhattan Beach","Elementary","131 IRWIN STREET","NY","-73.943498","40.580161","Sheepshead Bay-Gerritsen Beach-Manhattan Beach","718-648-9102","718-934-0625","BOVE, JULIA"
"183","K196","P.S. 196 Ten Eyck","Elementary","207 BUSHWICK AVENUE","NY","-73.939385","40.708804","Bushwick South","718-497-0139","718-628-5134","WINNICKI, ALICJA"
"184","K197","P.S. 197 - The Kings Highway Academy","Elementary","1599 EAST  22 STREET","NY","-73.951398","40.612339","Midwood","718-377-7890","718-377-7505","BOVE, JULIA"
"185","K198","P.S. 198 Brooklyn","Elementary","4105 FARRAGUT ROAD","NY","-73.937083","40.637601","East Flatbush-Farragut","718-282-4920","718-940-0821","BOVE, JULIA"
"186","K199","P.S. 199 Frederick Wachtel","Elementary","1100 ELM AVENUE","NY","-73.963026","40.61631","Midwood","718-339-1422","718-336-5562","DIMOLA, ISABEL"
"187","K200","P.S. 200 Benson School","Elementary","1940 BENSON AVENUE","NY","-74.001915","40.602809","Bath Beach","718-236-5466","718-232-3428","COSTANTINO, KARINA"
"188","K201","J.H.S. 201 The Dyker Heights","Junior High-Intermediate-Middle","8010 12 AVENUE","NY","-74.013749","40.619043","Dyker Heights","718-833-9363","718-836-1786","COSTANTINO, KARINA"
"189","K202","P.S. 202 Ernest S. Jenkyns","Elementary","982 HEGEMAN AVENUE","NY","-73.876084","40.665817","East New York","718-649-7880","718-927-2173","THOMAS MCBRYDE JR"
"190","K203","P.S. 203 Floyd Bennett School","Elementary","5101 AVENUE M","NY","-73.925732","40.622108","Flatlands","718-241-8488","718-209-9641","BOVE, JULIA"
"191","K204","P.S. 204 Vince Lombardi","Elementary","8101 15 AVENUE","NY","-74.006137","40.613535","Bensonhurst West","718-236-2906","718-232-9265","COSTANTINO, KARINA"
"192","K205","P.S. 205 Clarion","Elementary","6701 20 AVENUE","NY","-73.986792","40.614737","Bensonhurst West","718-236-2380","718-331-7299","COSTANTINO, KARINA"
"193","K206","P.S. 206 Joseph F Lamb","K-8","2200 GRAVESEND NECK ROAD","NY","-73.948453","40.596876","Sheepshead Bay-Gerritsen Beach-Manhattan Beach","718-743-5598","718-332-4986","BOVE, JULIA"
"194","K207","P.S. 207 Elizabeth G. Leary","K-8","4011 FILLMORE AVENUE","NY","-73.930485","40.613981","Georgetown-Marine Park-Bergen Beach-Mill Basin","718-645-8667","718-645-8139","BOVE, JULIA"
"195","K208","P.S. 208 Elsa Ebeling","Elementary","4801 AVENUE D","NY","-73.930898","40.6427","East Flatbush-Farragut","718-629-1670","718-451-0185","WILKINS, BEVERLY"
"196","K209","P.S. 209 Margaret Mead","K-8","2609 EAST  7 STREET","NY","-73.961191","40.5868","Brighton Beach","718-743-1954","718-743-6361","DIMOLA, ISABEL"
"197","K211","I.S. 211 John Wilson","Junior High-Intermediate-Middle","1001 EAST 100 STREET","NY","-73.895224","40.642931","Canarsie","718-251-4411","718-241-2503","WILKINS, BEVERLY"
"198","K212","P.S. 212 Lady Deborah Moody","Elementary","87 BAY  49 STREET","NY","-73.985368","40.587612","Gravesend","718-266-4841","718-266-7080","DIMOLA, ISABEL"
"199","K213","P.S. 213 New Lots","Elementary","580 HEGEMAN AVENUE","NY","-73.889968","40.659845","East New York","718-257-4034","718-272-3446","THOMAS MCBRYDE JR"
"200","K214","P.S. 214 Michael Friedsam","Elementary","2944 PITKIN AVENUE","NY","-73.862961","40.675881","Cypress Hills-City Line","718-647-1740","718-827-5838","THOMAS MCBRYDE JR"
"201","K215","P.S. 215 Morris H. Weiss","Elementary","415 AVENUE S","NY","-73.970171","40.602722","Homecrest","718-339-2464","718-998-7235","DIMOLA, ISABEL"
"202","K216","P.S. 216 Arturo Toscanini","Elementary","350 AVENUE X","NY","-73.969647","40.59","Gravesend","718-645-2862","718-645-2610","DIMOLA, ISABEL"
"203","K217","P.S. 217 Colonel David Marcus School","Elementary","1100 NEWKIRK AVENUE","NY","-73.966442","40.633482","Flatbush","718-434-6960","718-434-8170","BOVE, JULIA"
"204","K218","J.H.S. 218 James P. Sinnott","Junior High-Intermediate-Middle","370 FOUNTAIN AVENUE","NY","-73.874537","40.67002","East New York","718-647-9050","718-827-5839","THOMAS MCBRYDE JR"
"205","K219","P.S. 219 Kennedy-King","Elementary","1060 CLARKSON AVENUE","NY","-73.922296","40.658834","Rugby-Remsen Village","929-397-9566","949-397-9565","WILKINS, BEVERLY"
"206","K220","J.H.S. 220 John J. Pershing","Junior High-Intermediate-Middle","4812 9TH AVENUE","NY","-74.00125","40.640997","Sunset Park East","718-633-8200","718-871-7466","COSTANTINO, KARINA"
"207","K221","P.S. 221 Toussaint L'Ouverture","Elementary","791 EMPIRE BOULEVARD","NY","-73.935753","40.663964","Crown Heights South","718-756-0122","718-953-2657","ELLIS, CLARENCE"
"208","K222","P.S. 222 Katherine R. Snyder","Elementary","3301 QUENTIN ROAD","NY","-73.939205","40.614005","Georgetown-Marine Park-Bergen Beach-Mill Basin","718-998-4298","718-339-2107","BOVE, JULIA"
"209","K223","J.H.S. 223 The Montauk","Junior High-Intermediate-Middle","4200 16 AVENUE","NY","-73.982424","40.6351","Borough Park","718-438-0155","718-871-7477","COSTANTINO, KARINA"
"210","K224","P.S. 224 Hale A. Woodruff","Elementary","757 WORTMAN AVENUE","NY","-73.866542","40.664143","East New York","718-235-3600","718-827-5840","THOMAS MCBRYDE JR"
"211","K225","P.S. K225 - The Eileen E. Zaglin","K-8","1075 OCEAN VIEW AVENUE","NY","-73.955856","40.58026","Brighton Beach","718-743-9793","718-743-7096","DIMOLA, ISABEL"
"212","K226","P.S. 226 Alfred De B. Mason","K-8","6006 23 AVENUE","NY","-73.977099","40.615405","Borough Park","718-234-4940","718-234-4945","DIMOLA, ISABEL"
"213","K227","J.H.S. 227 Edward B. Shallow","Junior High-Intermediate-Middle","6500 16 AVENUE","NY","-73.995961","40.622102","Bensonhurst West","718-256-8218","718-234-6204","COSTANTINO, KARINA"
"214","K228","I.S. 228 David A. Boody","Junior High-Intermediate-Middle","228 AVENUE S","NY","-73.976801","40.60066","Bensonhurst East","718-375-7635","718-376-1209","DIMOLA, ISABEL"
"215","K229","P.S. 229 Dyker","K-8","1400 BENSON AVENUE","NY","-74.013585","40.610331","Bath Beach","718-236-5447","718-331-8173","COSTANTINO, KARINA"
"216","K230","P.S. 230 Doris L. Cohen","Elementary","1 ALBEMARLE ROAD","NY","-73.980515","40.645609","Kensington-Ocean Parkway","718-437-6135","718-871-2624","SKOP, ANITA"
"217","K231","P.S. K231","K-8","5601 16 AVENUE","NY","-73.98925","40.626454","Borough Park","718-853-1884","718-853-5388","LOUISSAINT, KETLER"
"218","K232","I.S. 232 The Winthrop","Junior High-Intermediate-Middle","905 WINTHROP STREET","NY","-73.929","40.6584","Prospect Lefferts Gardens-Wingate","718-773-2662","718-953-4592","Beverly Wilkins"
"219","K233","P.S. 233 Langston Hughes","Elementary","9301 AVENUE B","NY","-73.914282","40.651642","Rugby-Remsen Village","718-346-8103","718-345-3078","WILKINS, BEVERLY"
"220","K234","J.H.S. 234 Arthur W. Cunningham","Junior High-Intermediate-Middle","1875 EAST  17 STREET","NY","-73.955217","40.604447","Madison","718-645-1334","718-645-7759","BOVE, JULIA"
"221","K235","P.S. 235 Janice Marie Knight School","K-8","525 LENOX ROAD","NY","-73.940922","40.655337","East Flatbush-Farragut","718-773-4869","718-773-0048","WILKINS, BEVERLY"
"222","K236","P.S. 236 Mill Basin","Elementary","6302 AVENUE U","NY","-73.912005","40.615494","Georgetown-Marine Park-Bergen Beach-Mill Basin","718-444-6969","718-241-6630","BOVE, JULIA"
"223","K238","P.S. 238 Anne Sullivan","K-8","1633 EAST  8 STREET","NY","-73.964586","40.608801","Homecrest","718-339-4355","718-998-4351","DIMOLA, ISABEL"
"224","K239","Mark Twain I.S. 239 for the Gifted & Talented","Junior High-Intermediate-Middle","2401 NEPTUNE AVENUE","NY","-73.992447","40.57864","Seagate-Coney Island","718-266-0814","718-266-1693","DIMOLA, ISABEL"
"225","K240","Andries Hudde","Junior High-Intermediate-Middle","2500 NOSTRAND AVENUE","NY","-73.946836","40.623788","Midwood","718-253-3700","718-253-0356","BOVE, JULIA"
"226","K241","P.S. 241 Emma L. Johnston","Elementary","976 PRESIDENT STREET","NY","-73.960924","40.668913","Crown Heights South","718-636-4725","718-230-5468","ELLIS, CLARENCE"
"227","K243","P.S. 243K- The Weeksville School","Elementary","1580 DEAN STREET","NY","-73.935093","40.675675","Crown Heights North","718-604-6909","718-604-6914","MARTIN, YOLANDA"
"228","K244","P.S. 244 Richard R. Green","Elementary","5404 TILDEN AVENUE","NY","-73.925592","40.647851","Rugby-Remsen Village","718-346-6240","718-345-3083","WILKINS, BEVERLY"
"229","K245","P.S. 245","Elementary","249 EAST 17TH STREET","NY","-73.962743","40.644927","Flatbush","718-284-2330","718-284-2333","BOVE, JULIA"
"230","K246","M.S. 246 Walt Whitman","Junior High-Intermediate-Middle","72 VERONICA PLACE","NY","-73.95348","40.648352","Erasmus","718-282-5230","718-284-6429","ELLIS, CLARENCE"
"231","K247","P.S. 247 Brooklyn","Elementary","7000 21 AVENUE","NY","-73.987195","40.612247","Bensonhurst West","718-236-4205","718-331-8563","COSTANTINO, KARINA"
"232","K249","P.S. 249 The Caton","Elementary","18 MARLBOROUGH ROAD","NY","-73.966456","40.649509","Flatbush","718-282-8828","718-284-5146","ELLIS, CLARENCE"
"233","K250","P.S. 250 George H. Lindsay","Elementary","108 MONTROSE AVENUE","NY","-73.945659","40.706708","East Williamsburg","718-384-0889","718-302-2314","WINNICKI, ALICJA"
"234","K251","P.S. 251 Paerdegat","Elementary","1037 EAST  54 STREET","NY","-73.923894","40.63195","Flatlands","718-251-4110","718-241-3200","BOVE, JULIA"
"235","K252","I.S. 252 Arthur S. Somers","Junior High-Intermediate-Middle","1084 LENOX ROAD","NY","-73.9201","40.6583","Rugby-Remsen Village","718-342-1144","718-485-8117","Beverly Wilkins"
"236","K253","P.S. 253","Elementary","601 OCEANVIEW AVENUE","NY","-73.961962","40.580237","Brighton Beach","718-332-3331","718-743-7194","DIMOLA, ISABEL"
"237","K254","P.S. 254 Dag Hammarskjold","Elementary","1801 AVENUE Y","NY","-73.95155","40.591103","Sheepshead Bay-Gerritsen Beach-Manhattan Beach","718-743-0890","718-332-4477","BOVE, JULIA"
"238","K255","P.S. 255 Barbara Reing School","Elementary","1866 EAST  17 STREET","NY","-73.955891","40.604461","Madison","718-376-8494","718-627-0626","BOVE, JULIA"
"239","K256","P.S. 256 Benjamin Banneker","Elementary","114 KOSCIUSZKO STREET","NY","-73.94961","40.690595","Bedford","718-857-9820","718-783-7384","SAMUELS, KAMAR"
"240","K257","P.S. 257 John F. Hylan","Elementary","60 COOK STREET","NY","-73.941345","40.702759","East Williamsburg","718-384-7128","718-387-8115","WINNICKI, ALICJA"
"241","K258","J.H.S. 258 David Ruggles","Junior High-Intermediate-Middle","141 MACON STREET","NY","-73.9454","40.6816","Bedford","718-398-3764","718-857-3422","James Machen"
"242","K259","J.H.S. 259 William McKinley","Junior High-Intermediate-Middle","7305 FT HAMILTON PARKWAY","NY","-74.014633","40.626089","Dyker Heights","718-833-1000","718-833-3419","COSTANTINO, KARINA"
"243","K260","P.S. 260 Breuckelen","Elementary","875 WILLIAMS AVENUE","NY","-73.893294","40.653368","Canarsie","718-649-9216","718-927-2215","STALLINGS-HARTE, JOYCE"
"244","K261","P.S. 261 Philip Livingston","Elementary","314 PACIFIC STREET","NY","-73.988667","40.687218","DUMBO-Vinegar Hill-Downtown Brooklyn-Boerum Hill","718-330-9275","718-875-9503","SKOP, ANITA"
"245","K262","P.S. 262 El Hajj Malik El Shabazz Elementary Schoo","Elementary","500 MACON STREET","NY","-73.930132","40.682949","Crown Heights North","718-453-0780","718-453-0679","MARTIN, YOLANDA"
"246","K264","P.S. 264 Bay Ridge Elementary School For The Arts","Elementary","371 89th Street","NY","-74.029444","40.621025","Bay Ridge","718-630-1650","718-630-1655","COSTANTINO, KARINA"
"247","K265","Dr. Susan S. McKinney Secondary School of the Arts","Secondary School","101 PARK AVENUE","NY","-73.976104","40.697177","Fort Greene","718-834-6760","718-243-0815","SAMUELS, KAMAR"
"248","K266","M.S. K266 - Park Place Community Middle School","Junior High-Intermediate-Middle","62 PARK PLACE","NY","-73.976648","40.678809","Park Slope-Gowanus","718-245-8766","718-245-8769","SAMUELS, KAMAR"
"249","K267","M.S. 267 Math, Science & Technology","Junior High-Intermediate-Middle","800 GATES AVENUE","NY","-73.932066","40.68797","Stuyvesant Heights","718-574-2318","718-574-2320","MARTIN, YOLANDA"
"250","K268","P.S. 268 Emma Lazarus","Elementary","133 EAST  53 STREET","NY","-73.92756","40.657421","Rugby-Remsen Village","718-773-5332","718-493-7448","WILKINS, BEVERLY"
"251","K269","P.S. 269 Nostrand","Elementary","1957 NOSTRAND AVENUE","NY","-73.947672","40.637625","Flatbush","718-941-2800","718-940-3098","BOVE, JULIA"
"252","K270","P.S. 270 Johann DeKalb","Elementary","241 EMERSON PLACE","NY","-73.961134","40.691275","Clinton Hill","718-623-5280","718-622-3370","SAMUELS, KAMAR"
"253","K271","I.S. 271 John M. Coleman","Junior High-Intermediate-Middle","121 SARATOGA AVENUE","NY","-73.9171","40.6827","Ocean Hill","718-495-7787","718-495-7831","Donald Conyers"
"254","K272","P.S. 272 Curtis Estabrook","Elementary","101-24 SEAVIEW AVENUE","NY","-73.886373","40.635542","Canarsie","929-437-5000","929-437-5009","WILKINS, BEVERLY"
"255","K273","P.S. 273 Wortman","Elementary","923 JEROME STREET","NY","-73.879276","40.6585","East New York","718-649-5739","718-927-2230","THOMAS MCBRYDE JR"
"256","K274","P.S. 274 Kosciusko","Elementary","800 BUSHWICK AVENUE","NY","-73.92818","40.694179","Bushwick South","718-642-5300","718-574-1059","GORSKI, SHEILA"
"257","K275","IS 275 Thelma J. Hamilton","Junior High-Intermediate-Middle","985 ROCKAWAY AVENUE","NY","-73.9074","40.6566","Brownsville","718-495-7833","718-495-7836","Donald Conyers"
"258","K276","P.S. 276 Louis Marshall","Elementary","1070 EAST  83 STREET","NY","-73.908436","40.634005","Canarsie","718-241-5757","718-241-5560","WILKINS, BEVERLY"
"259","K277","P.S. 277 Gerritsen Beach","Elementary","2529 GERRITSEN AVENUE","NY","-73.92785","40.595798","park-cemetery-etc-Brooklyn","718-743-6689","718-368-0920","BOVE, JULIA"
"260","K278","J.H.S. 278 Marine Park","Junior High-Intermediate-Middle","1925 STUART STREET","NY","-73.938721","40.606745","park-cemetery-etc-Brooklyn","718-375-3523","718-998-7324","BOVE, JULIA"
"261","K279","P.S. 279 Herman Schreiber","Elementary","1070 EAST 104 STREET","NY","-73.892797","40.644134","Canarsie","718-444-4316","718-241-5581","WILKINS, BEVERLY"
"262","K280","IS 280 Brooklyn Studio School","Junior High-Intermediate-Middle","8310 21ST AVENUE","NY","-73.9944","40.6049","Bensonhurst West","718-266-5032","718-266-5093","Richard D'Auria"
"263","K281","I.S. 281 Joseph B Cavallaro","Junior High-Intermediate-Middle","8787 24 AVENUE","NY","-73.993565","40.594648","Bensonhurst East","718-996-6706","718-996-4186","DIMOLA, ISABEL"
"264","K282","P.S. 282 Park Slope","K-8","180 6 AVENUE","NY","-73.977983","40.676649","Park Slope-Gowanus","718-622-1626","718-622-3471","SAMUELS, KAMAR"
"265","K284","The Gregory Jocko Jackson School of Sports, Art, a","K-8","213 OSBORN STREET","NY","-73.907634","40.666942","Brownsville","718-495-7791","718-495-7839","PATE, MIATHERESA"
"266","K285","I.S. 285 Meyer Levin","Junior High-Intermediate-Middle","5909 BEVERLY ROAD","NY","-73.920784","40.647818","Rugby-Remsen Village","718-451-2200","718-228-4118","WILKINS, BEVERLY"
"267","K285","I.S. 285 Meyer Levin","Junior High-Intermediate-Middle","5909 BEVERLY ROAD","NY","-73.920784","40.647818","Rugby-Remsen Village","718-451-2200","718-228-4118","WILKINS, BEVERLY"
"268","K287","P.S. 287 Bailey K. Ashford","Elementary","50 NAVY STREET","NY","-73.98112","40.697856","DUMBO-Vinegar Hill-Downtown Brooklyn-Boerum Hill","718-834-4745","718-834-6766","SAMUELS, KAMAR"
"269","K288","P.S. 288 The Shirley Tanyhill","K-8","2950 WEST  25 STREET","NY","-73.992393","40.574029","Seagate-Coney Island","718-382-2100","718-382-2111","DIMOLA, ISABEL"
"270","K289","P.S. 289 George V. Brower","Elementary","900 ST MARKS AVENUE","NY","-73.942401","40.674244","Crown Heights North","718-493-3824","718-467-3735","ELLIS, CLARENCE"
"271","K290","P.S. 290 Juan Morel Campos","Elementary","135 SCHENCK AVENUE","NY","-73.889375","40.678182","East New York","718-647-1113","718-827-5842","THOMAS MCBRYDE JR"
"272","K291","J.H.S. 291 Roland Hayes","Junior High-Intermediate-Middle","231 PALMETTO STREET","NY","-73.915217","40.695875","Bushwick North","718-574-0361","718-574-1360","GORSKI, SHEILA"
"273","K292","J.H.S. 292 Margaret S. Douglas","Junior High-Intermediate-Middle","301 VERMONT STREET","NY","-73.893319","40.671601","East New York (Pennsylvania Ave)","718-498-6562","718-345-3327","THOMAS MCBRYDE JR"
"274","K292","J.H.S. 292 Margaret S. Douglas","Junior High-Intermediate-Middle","301 VERMONT STREET","NY","-73.893319","40.671601","East New York (Pennsylvania Ave)","718-498-6562","718-345-3327","THOMAS MCBRYDE JR"
"275","K295","P.S. 295","Elementary","330 18 STREET","NY","-73.988743","40.660805","Sunset Park West","718-965-0390","718-965-0603","SKOP, ANITA"
"276","K296","I.S. 296 - The Anna Gonzalez Community School","Junior High-Intermediate-Middle","125 COVERT STREET","NY","-73.910589","40.688647","Bushwick South","718-574-0288","718-574-1368","DRUCK,  LILLIAN"
"277","K297","P.S. 297 Abraham Stockton","Elementary","700 PARK AVENUE","NY","-73.948166","40.697377","Bedford","718-388-4581","718-302-2315","WINNICKI, ALICJA"
"278","K298","P.S. 298 Dr. Betty Shabazz","Elementary","85 WATKINS STREET","NY","-73.907718","40.671015","Brownsville","718-495-7793","718-566-8770","PATE, MIATHERESA"
"279","K299","P.S. 299 Thomas Warren Field","Elementary","88 WOODBINE STREET","NY","-73.917899","40.690755","Bushwick South","718-473-8230","718-574-1080","GORSKI, SHEILA"
"280","K301","Satellite East Middle School","Junior High-Intermediate-Middle","31 NEW YORK AVENUE","NY","-73.946381","40.679079","Crown Heights North","718-789-4251","718-789-4823","SAMUELS, KAMAR"
"281","K302","J.H.S. 302 Rafael Cordero","Junior High-Intermediate-Middle","350 LINWOOD STREET","NY","-73.884211","40.677112","East New York","718-647-9500","718-827-3294","STALLINGS-HARTE, JOYCE"
"282","K303","I.S. 303 Herbert S. Eisenberg","Junior High-Intermediate-Middle","501 WEST AVENUE","NY","-73.972009","40.582518","West Brighton","718-996-0100","718-996-3785","DIMOLA, ISABEL"
"283","K303","I.S. 303 Herbert S. Eisenberg","Junior High-Intermediate-Middle","501 WEST AVENUE","NY","-73.972009","40.582518","West Brighton","718-996-0100","718-996-3785","DIMOLA, ISABEL"
"284","K304","P.S. 304 Casimir Pulaski","Elementary","280 HART STREET","NY","-73.9408","40.6941","Stuyvesant Heights","718-574-2377","718-453-0676","Evelyn Santiago"
"285","K305","P.S. 305 Dr. Peter Ray","Elementary","344 MONROE STREET","NY","-73.94573","40.685653","Bedford","718-789-3962","718-622-3474","SAMUELS, KAMAR"
"286","K306","P.S. 306 Ethan Allen","Elementary","970 VERMONT STREET","NY","-73.88662","40.65534","East New York","718-649-3155","718-927-2243","THOMAS MCBRYDE JR"
"287","K307","P.S. 307 Daniel Hale Williams","Elementary","209 YORK STREET","NY","-73.981599","40.701789","DUMBO-Vinegar Hill-Downtown Brooklyn-Boerum Hill","718-834-4748","718-855-4181","SAMUELS, KAMAR"
"288","K308","P.S. 308 Clara Cardwell","K-8","616 QUINCY STREET","NY","-73.935509","40.688323","Stuyvesant Heights","718-571-6960","718-453-0663","MARTIN, YOLANDA"
"289","K309","P.S. 309 The George E. Wibecan Preparatory Academy","Elementary","794 MONROE STREET","NY","-73.924422","40.6881","Stuyvesant Heights","718-574-2381","718-453-0643","MARTIN, YOLANDA"
"290","K310","The School For Future Leaders","Elementary","942 62ND STREET","NY","-74.007533","40.632143","Sunset Park East","718-491-7670","718-765-4635","COSTANTINO, KARINA"
"291","K311","Essence School","Junior High-Intermediate-Middle","590 SHEFFIELD AVENUE","NY","-73.894877","40.662243","East New York (Pennsylvania Ave)","718-272-8371","718-272-8372","THOMAS MCBRYDE JR"
"292","K312","P.S. 312 Bergen Beach","Elementary","7103 AVENUE T","NY","-73.909554","40.622442","Georgetown-Marine Park-Bergen Beach-Mill Basin","718-763-4015","718-531-2796","BOVE, JULIA"
"293","K313","Dock Street School for STEAM Studies","Junior High-Intermediate-Middle","19 DOCK STREET","NY","-73.992076","40.702952","DUMBO-Vinegar Hill-Downtown Brooklyn-Boerum Hill","718-780-7660","718-780-7675","SAMUELS, KAMAR"
"294","K314","PS 314 Luis Munoz Marin","Elementary","330 59 STREET","NY","-74.019","40.6422","Sunset Park West","718-492-0087","718-492-9431","Karina Costantino"
"295","K315","P.S. K315","Elementary","2310 GLENWOOD ROAD","NY","-73.954269","40.632619","Flatbush","718-421-9560","718-421-9561","BOVE, JULIA"
"296","K315","P.S. K315","Elementary","2310 GLENWOOD ROAD","NY","-73.954269","40.632619","Flatbush","718-421-9560","718-421-9561","BOVE, JULIA"
"297","K316","P.S. 316 Elijah Stroud","Elementary","750 CLASSON AVENUE","NY","-73.961418","40.674685","Prospect Heights","718-638-4043","718-230-5366","ELLIS, CLARENCE"
"298","K317","The Greenpoint Community Middle School At The John","Junior High-Intermediate-Middle","424 LEONARD STREET","NY","-73.947932","40.719818","Greenpoint","NULL","NULL","WINNICKI, ALICJA"
"299","K318","I.S. 318 Eugenio Maria De Hostos","Junior High-Intermediate-Middle","101 WALTON STREET","NY","-73.948771","40.703034","Williamsburg","718-782-0589","718-384-7715","WINNICKI, ALICJA"
"300","K319","P.S. 319","Early Childhood","360 KEAP STREET","NY","-73.953881","40.709632","North Side-South Side","718-388-1588","718-302-2316","WINNICKI, ALICJA"
"301","K321","P.S. 321 William Penn","Elementary","180 7 AVENUE","NY","-73.978633","40.671816","Park Slope-Gowanus","718-499-2412","718-965-9605","SKOP, ANITA"
"302","K322","Foundations Academy","High school","70 TOMPKINS AVENUE","NY","-73.947557","40.696698","Bedford","718-302-5092","718-599-1369","NULL"
"303","K323","P.S./I.S. 323","K-8","210 CHESTER STREET","NY","-73.911279","40.666187","Brownsville","718-495-7781","718-346-4614","PATE, MIATHERESA"
"304","K325","The Fresh Creek School","Elementary","875 WILLIAMS AVENUE","NY","-73.893294","40.653368","Canarsie","718-272-1843","718-272-2813","THOMAS MCBRYDE JR"
"305","K326","P.S. 326","Early Childhood","1800 UTICA AVENUE","NY","-73.92825","40.628417","Flatlands","718-241-4828","718-763-5567","BOVE, JULIA"
"306","K327","P.S. 327 Dr. Rose B. English","K-8","111 BRISTOL STREET","NY","-73.911788","40.668232","Brownsville","718-495-7801","718-495-7828","PATE, MIATHERESA"
"307","K328","P.S. 328 Phyllis Wheatley","Elementary","330 ALABAMA AVENUE","NY","-73.898249","40.667985","East New York (Pennsylvania Ave)","718-345-9393","718-345-6566","THOMAS MCBRYDE JR"
"308","K329","P.S. 329 Surfside","Elementary","2929 WEST  30 STREET","NY","-73.99577","40.574666","Seagate-Coney Island","718-787-3460","718-787-3471","DIMOLA, ISABEL"
"309","K330","The School for the Urban Environment","Junior High-Intermediate-Middle","70 TOMPKINS AVENUE","NY","-73.947557","40.696698","Bedford","718-599-0371","718-388-0872","WINNICKI, ALICJA"
"310","K332","P.S. 332 Charles H. Houston","K-8","51 CHRISTOPHER AVENUE","NY","-73.906018","40.672216","Brownsville","718-495-7805","718-495-7708","DEGOVIA, MAURICIERE"
"311","K333","Explore Exceed Charter School","K-8","443 ST MARKS AVENUE","NY","-73.960093","40.6771","Crown Heights North","718-989-6702","718-701-8328","NULL"
"312","K334","Middle School for Academic and Social Excellence","Junior High-Intermediate-Middle","1224 PARK PLACE","NY","-73.937601","40.67229","Crown Heights North","718-774-0105","718-774-0298","ELLIS, CLARENCE"
"313","K335","P.S. 335 Granville T. Woods","Elementary","130 ROCHESTER AVENUE","NY","-73.928673","40.674491","Crown Heights North","718-493-7736","718-953-4697","MARTIN, YOLANDA"
"314","K336","Academy of Business and Community Development","Secondary School","141 MACON STREET","NY","-73.9456","40.68192","Bedford","718-783-4842","718-783-4869","NULL"
"315","K337","International High School at Lafayette","High school","2630 BENSON AVENUE","NY","-73.986313","40.593028","Gravesend","718-333-7860","718-333-7861","NULL"
"316","K338","School Of Integrated Academics And Performing Arts","Junior High-Intermediate-Middle","800 VAN SICLEN AVE","NY","-73.885704","40.659934","East New York","NULL","NULL","THOMAS MCBRYDE JR"
"317","K340","I.S. 340","Junior High-Intermediate-Middle","227 STERLING PLACE","NY","-73.970315","40.676357","Prospect Heights","718-857-5516","718-230-5479","ELLIS, CLARENCE"
"318","K344","Rachel Carson High School for Coastal Studies","High school","521 WEST AVENUE","NY","-73.972009","40.582518","West Brighton","718-265-0329","718-372-2514","NULL"
"319","K344","Rachel Carson High School for Coastal Studies","High school","521 WEST AVENUE","NY","-73.972009","40.582518","West Brighton","718-265-0329","718-372-2514","NULL"
"320","K345","P.S. 345 Patrolman Robert Bolden","Elementary","111 BERRIMAN STREET","NY","-73.879886","40.676207","East New York","718-647-8387","718-827-5884","THOMAS MCBRYDE JR"
"321","K346","P.S. 346 Abe Stark","Elementary","1400 PENNSYLVANIA AVENUE","NY","-73.881997","40.64664","Starrett City","718-642-3000","718-642-8498","THOMAS MCBRYDE JR"
"322","K347","I.S. 347 School of Humanities","Junior High-Intermediate-Middle","35 STARR STREET","NY","-73.927938","40.70081","Bushwick South","718-821-4248","718-821-1332","GORSKI, SHEILA"
"323","K348","High School of Sports Management","High school","2630 BENSON AVENUE","NY","-73.986313","40.593028","Gravesend","718-333-7650","718-333-7675","NULL"
"324","K349","I.S. 349 Math, Science & Tech.","Junior High-Intermediate-Middle","35 STARR STREET","NY","-73.927938","40.70081","Bushwick South","718-418-6389","718-418-6146","GORSKI, SHEILA"
"325","K350","Urban Assembly School of Music and Art","High school","49 FLATBUSH AVENUE EXTENSION","NY","-73.984528","40.69733","DUMBO-Vinegar Hill-Downtown Brooklyn-Boerum Hill","718-858-0249","718-858-0492","NULL"
"326","K351","The Urban Assembly Unison School","Junior High-Intermediate-Middle","170 GATES AVENUE","NY","-73.960536","40.684286","Clinton Hill","718-399-1061","718-857-0548","SAMUELS, KAMAR"
"327","K352","Ebbets Field Middle School","Junior High-Intermediate-Middle","46 MCKEEVER PLACE","NY","-73.959484","40.665199","Crown Heights South","718-941-5097","718-284-7973","ELLIS, CLARENCE"
"328","K353","Elijah Stroud Middle School","Junior High-Intermediate-Middle","750 CLASSON AVENUE","NY","-73.961418","40.674685","Prospect Heights","718-638-3067","718-638-3515","ELLIS, CLARENCE"
"329","K354","The School of Integrated Learning","Junior High-Intermediate-Middle","1224 PARK PLACE","NY","-73.937601","40.67229","Crown Heights North","718-774-0362","718-774-0521","ELLIS, CLARENCE"
"330","K355","Williamsburg Collegiate Charter School","Junior High-Intermediate-Middle","157 WILSON STREET","NY","-73.962049","40.706069","Williamsburg","718-302-4018","718-302-4641","NULL"
"331","K356","Achievement First Crown Heights Charter School","K-12 all grades","790 EAST NEW YORK AVENUE","NY","-73.936313","40.662092","Prospect Lefferts Gardens-Wingate","718-774-0762","718-774-0830","NULL"
"332","K357","KIPP AMP Charter School","K-12 all grades","1224 PARK PLACE","NY","-73.937601","40.67229","Crown Heights North","718-943-3710","718-774-3673","NULL"
"333","K358","Achievement First East New York Charter School","K-12 all grades","557 PENNSYLVANIA AVENUE","NY","-73.893328","40.664067","East New York (Pennsylvania Ave)","718-485-4924","718-342-5194","NULL"
"334","K359","The Uft Charter School","High school","800 VAN SICLEN AVE","NY","-73.885704","40.659934","East New York","718-927-5540","718-922-0543","NULL"
"335","K360","Launch Expeditionary Learning Charter School","Junior High-Intermediate-Middle","1580 DEAN STREET","NY","-73.935093","40.675675","Crown Heights North","718-221-1064","718-221-1927","NULL"
"336","K361","P.S. 361 East Flatbush Early Childhood School","Elementary","1957 NOSTRAND AVENUE","NY","-73.947672","40.637625","Flatbush","718-941-2800","718-940-3098","BOVE, JULIA"
"337","K362","Hellenic Classical Charter School","K-8","646 FIFTH AVENUE","NY","-73.992254","40.662985","Park Slope-Gowanus","718-499-0957","718-499-0959","NULL"
"338","K363","Brownsville Collaborative Middle School","Junior High-Intermediate-Middle","85 WATKINS STREET","NY","-73.907718","40.671015","Brownsville","718-495-1202","718-495-1208","PATE, MIATHERESA"
"339","K364","I.S. 364 Gateway","Junior High-Intermediate-Middle","1426 FREEPORT LOOP","NY","-73.881115","40.646211","Starrett City","718-642-3007","718-642-8516","THOMAS MCBRYDE JR"
"340","K365","District 23 HS#1","High school","1495 HERKIMER STREET","NY","-73.904143","40.677528","Ocean Hill","NULL","NULL","PATE, MIATHERESA"
"341","K366","The Science And Medicine Middle School","Junior High-Intermediate-Middle","965 EAST 107TH STREET","NY","-73.891743","40.647396","Canarsie","718-688-6400","718-688-6401","WILKINS, BEVERLY"
"342","K367","Success Academy Charter School - Bed-Stuy 1","K-8","70 TOMPKINS AVENUE","NY","-73.947557","40.696698","Bedford","718-635-3294","646-964-6598","NULL"
"343","K368","P.S. 368","K-12 all grades","70 TOMPKINS AVENUE","NY","-73.947557","40.696698","Bedford","718-388-9494","718-302-4481","LOUISSAINT, KETLER"
"344","K369","P.S. K369 - Coy L. Cox School","K-12 all grades","383 STATE STREET","NY","-73.983312","40.687432","DUMBO-Vinegar Hill-Downtown Brooklyn-Boerum Hill","718-852-1701","718-624-6746","LOUISSAINT, KETLER"
"345","K370","P.S. 370","K-12 all grades","3000 WEST 1 STREET","NY","-73.969872","40.577709","West Brighton","718-372-3777","718-449-4082","LOUISSAINT, KETLER"
"346","K371","P.S. 371 - Lillian L. Rashkis","High school","355 37 STREET","NY","-74.005168","40.654306","Sunset Park West","718-788-7608","718-832-2213","LOUISSAINT, KETLER"
"347","K372","P.S. 372 -The Children's School","K-8","512 CARROLL STREET","NY","-73.9855","40.676198","Park Slope-Gowanus","718-624-5271","718-522-1879","LOUISSAINT, KETLER"
"348","K373","P.S. 373 - Brooklyn Transition Center","High school","185 ELLERY STREET","NY","-73.945211","40.699214","Bedford","718-782-6800","718-782-7098","LOUISSAINT, KETLER"
"349","K375","P.S. 375 Jackie Robinson School","Elementary","46 MCKEEVER PLACE","NY","-73.959484","40.665199","Crown Heights South","718-693-6655","718-284-6433","ELLIS, CLARENCE"
"350","K376","P.S. 376","Elementary","194 HARMAN STREET","NY","-73.920187","40.69805","Bushwick North","718-573-0781","718-573-0769","GORSKI, SHEILA"
"351","K377","P.S. 377 Alejandrina B. De Gautier","K-8","200 WOODBINE STREET","NY","-73.915159","40.693542","Bushwick South","718-574-0325","718-574-1082","GORSKI, SHEILA"
"352","K378","MS 378 Carroll Gardens C.S","Junior High-Intermediate-Middle","610 HENRY STREET","NY","-74.0014","40.6801","Carroll Gardens-Columbia Street-Red Hook","718-923-4600","718-923-4620","Rosemary Stuart"
"353","K379","Explore Excel Charter School","K-8","1077 REMSEN AVENUE","NY","-73.90788","40.642684","Canarsie","347-902-1758","718-272-1827","NULL"
"354","K380","P.S. 380 John Wayne Elementary","Elementary","370 MARCY AVENUE","NY","-73.953702","40.70179","Bedford","718-388-0607","718-599-3231","WINNICKI, ALICJA"
"355","K381","I. S. 381","Junior High-Intermediate-Middle","2500 NOSTRAND AVENUE","NY","-73.946836","40.623788","Midwood","718-338-1534","718-338-2794","BOVE, JULIA"
"356","K382","Academy for College Preparation and Career Explora","Secondary School","911 FLATBUSH AVENUE","NY","-73.957173","40.649602","Erasmus","718-564-2566","718-564-2567","NULL"
"357","K383","J.H.S. 383 Philippa Schuyler","Junior High-Intermediate-Middle","1300 GREENE AVENUE","NY","-73.919088","40.697898","Bushwick North","718-574-0390","718-574-1366","GORSKI, SHEILA"
"358","K384","P.S. /I.S. 384 Frances E. Carter","K-8","242 COOPER STREET","NY","-73.904695","40.689883","Bushwick North","718-642-4890","718-642-5029","GORSKI, SHEILA"
"359","K385","School of Business, Finance and Entrepreneurship","Junior High-Intermediate-Middle","125 STUYVESANT AVENUE","NY","-73.932254","40.691467","Stuyvesant Heights","718-602-3271","718-602-3274","AMON, RAHESHA"
"360","K386","Invictus Preparatory Charter School","Junior High-Intermediate-Middle","370 FOUNTAIN AVENUE","NY","-73.874537","40.67002","East New York","718-235-1682","718-235-1685","NULL"
"361","K390","M S 390 Maggie L. Walker","Junior High-Intermediate-Middle","1224 PARK PLACE","NY","-73.9372","40.6727","Crown Heights North","718-493-5445","718-467-4522","Rhonda Hurdle Taylor"
"362","K391","I S 391 Mahalia Jackson","Junior High-Intermediate-Middle","790 EAST NEW YORK AVENUE","NY","-73.9364","40.6624","Prospect Lefferts Gardens-Wingate","718-493-8920","718-467-3549","Rhonda Hurdle Taylor"
"363","K392","I.S. 392","Junior High-Intermediate-Middle","104 SUTTER AVENUE","NY","-73.91788","40.665553","Brownsville","718-498-2491","718-346-2804","PATE, MIATHERESA"
"364","K393","Frederick Douglass Academy IV Secondary School","High school","125 STUYVESANT AVENUE","NY","-73.932254","40.691467","Stuyvesant Heights","718-574-3126","718-574-2821","NULL"
"365","K394","M.S. K394","K-8","188 ROCHESTER AVENUE","NY","-73.928917","40.67271","Crown Heights North","718-756-3164","718-756-3177","ELLIS, CLARENCE"
"366","K395","New Visions A.I.M. Charter High School I","High school","1150 EAST NEW YORK AVENUE","NY","-73.923881","40.666251","Brownsville","718-280-9819","718-498-0604","NULL"
"367","K396","P.S. K396","K-8","110 CHESTER STREET","NY","-73.911788","40.668232","Brownsville","718-385-6200","718-345-3021","LOUISSAINT, KETLER"
"368","K397","P.S. 397 Foster-Laurie","Elementary","490 FENIMORE STREET","NY","-73.946358","40.658663","Prospect Lefferts Gardens-Wingate","718-774-5200","718-953-4856","ELLIS, CLARENCE"
"369","K398","P.S. 398 Walter Weaver","Elementary","60 EAST  94 STREET","NY","-73.927979","40.663388","Rugby-Remsen Village","718-774-4466","718-467-4018","ELLIS, CLARENCE"
"370","K399","P.S. 399 Stanley Eugene Clark","Elementary","2707 ALBEMARLE ROAD","NY","-73.951664","40.648277","Erasmus","718-693-3023","718-940-0702","ELLIS, CLARENCE"
"371","K400","Lafayette High School","High school","2630 BENSON AVENUE","NY","-73.986313","40.593028","Gravesend","718-372-3480","718-996-6684","NULL"
"372","K401","Christopher Avenue Community School","Elementary","51 CHRISTOPHER AVENUE","NY","-73.906018","40.672216","Brownsville","718-495-5761","718-495-5764","PATE, MIATHERESA"
"373","K403","Academy for Excellence in Leadership","High school","400 IRVING AVENUE","NY","-73.911751","40.696457","Bushwick North","718-381-7100","718-381-0223","NULL"
"374","K404","Academy for Young Writers","Secondary School","1065 ELTON STREET","NY","-73.874064","40.657266","East New York","718-688-7230","718-688-7236","NULL"
"375","K405","Midwood High School","High school","2839 BEDFORD AVENUE","NY","-73.952356","40.632829","Flatbush","718-724-8500","718-724-8515","NULL"
"376","K406","EMBER Charter School for Mindful Education, Innova","K-8","616 QUINCY STREET","NY","-73.935509","40.688323","Stuyvesant Heights","718-285-3787","NULL","NULL"
"377","K408","Academy of Hospitality and Tourism","High school","911 FLATBUSH AVENUE","NY","-73.957173","40.649602","Erasmus","718-564-2580","718-564-2581","NULL"
"378","K409","East New York Family Academy","Secondary School","145 PENNSYLVANIA AVENUE","NY","-73.895976","40.673766","East New York (Pennsylvania Ave)","718-498-5240","718-498-5246","NULL"
"379","K410","Abraham Lincoln High School","High school","2800 OCEAN PARKWAY","NY","-73.968733","40.582627","West Brighton","718-333-7400","718-946-5035","NULL"
"380","K412","Brooklyn Community Arts & Media High School (BCAM)","High school","300 WILLOUGHBY AVENUE","NY","-73.95818","40.692015","Clinton Hill","718-230-5748","718-230-3050","NULL"
"381","K414","Brooklyn Arbor Elementary School","Elementary","325 SOUTH  3 STREET","NY","-73.954678","40.710107","North Side-South Side","718-963-0393","718-963-2083","WINNICKI, ALICJA"
"382","K415","Samuel J. Tilden High School","High school","5800 TILDEN AVENUE","NY","-73.922212","40.647728","Rugby-Remsen Village","718-629-4523","718-629-0165","NULL"
"383","K417","Urban Dove Charter School","High school","600 LAFAYETTE AVENUE","NY","-73.950714","40.689574","Bedford","718-783-8232","NULL","NULL"
"384","K419","Science Skills Center High School for Science, Tec","High school","49 FLATBUSH AVENUE EXTENSION","NY","-73.984528","40.69733","DUMBO-Vinegar Hill-Downtown Brooklyn-Boerum Hill","718-243-9413","718-243-1016","NULL"
"385","K420","Franklin K. Lane High School","High school","999 JAMAICA AVENUE","NY","-73.869305","40.693002","park-cemetery-etc-Brooklyn","718-647-2100","718-235-4877","NULL"
"386","K422","Spring Creek Community School","Secondary School","1065 ELTON STREET","NY","-73.874064","40.657266","East New York","718-688-7200","718-688-7206","NULL"
"387","K423","Brooklyn Frontiers High School","High school","112 SCHERMERHORN STREET","NY","-73.989369","40.690007","DUMBO-Vinegar Hill-Downtown Brooklyn-Boerum Hill","718-722-4727","718-722-7919","NULL"
"388","K425","James Madison High School","High school","3787 BEDFORD AVENUE","NY","-73.947661","40.610499","Madison","718-758-7200","718-758-7341","NULL"
"389","K429","Digital Arts and Cinema Technology High School","Secondary School","284 BALTIC STREET","NY","-73.993293","40.685006","DUMBO-Vinegar Hill-Downtown Brooklyn-Boerum Hill","718-694-9741","718-694-9745","NULL"
"390","K430","Brooklyn Technical High School","High school","29 FT GREENE PLACE","NY","-73.976435","40.688896","Fort Greene","718-804-6400","718-260-9245","NULL"
"391","K434","Greenpoint High School For Engineering And Automot","High school","50 BEDFORD AVENUE","NY","-73.953328","40.721448","North Side-South Side","NULL","NULL","WINNICKI, ALICJA"
"392","K435","Thomas Jefferson High School","High school","400 PENNSYLVANIA AVENUE","NY","-73.8947","40.6675","East New York (Pennsylvania Ave)","718-345-1801","718-345-2014","Martin Weinstein"
"393","K439","Brooklyn International High School","High school","49 FLATBUSH AVENUE EXTENSION","NY","-73.984528","40.69733","DUMBO-Vinegar Hill-Downtown Brooklyn-Boerum Hill","718-643-9315","718-643-9516","NULL"
"394","K440","Prospect Heights Hs","High school","883 CLASSON AVENUE","NY","-73.9617","40.6703","Crown Heights South","718-636-5800","718-789-7279","Rhonda Hurdle Taylor"
"395","K442","M.S. 442 Carroll Gardens School for Innovation","Junior High-Intermediate-Middle","500 19 STREET","NY","-73.983116","40.656952","Windsor Terrace","718-369-4480","718-369-4481","SKOP, ANITA"
"396","K443","New Voices School of Academic & Creative Arts","Junior High-Intermediate-Middle","330 18 STREET","NY","-73.988743","40.660805","Sunset Park West","718-965-0390","718-965-0603","SKOP, ANITA"
"397","K445","New Utrecht High School","High school","1601 80 STREET","NY","-74.002308","40.613041","Bensonhurst West","718-232-2500","718-259-5526","NULL"
"398","K446","Riverdale Avenue Community School","Elementary","76 RIVERDALE AVENUE","NY","-73.913508","40.659618","Brownsville","718-485-1679","718-485-1768","PATE, MIATHERESA"
"399","K447","The Math & Science Exploratory School","Junior High-Intermediate-Middle","345 DEAN STREET","NY","-73.980266","40.683951","DUMBO-Vinegar Hill-Downtown Brooklyn-Boerum Hill","718-330-9328","718-330-0944","SKOP, ANITA"
"400","K448","Brooklyn Collaborative Studies","Secondary School","610 HENRY STREET","NY","-74.002022","40.679462","Carroll Gardens-Columbia Street-Red Hook","718-923-4700","718-923-4730","NULL"
"401","K449","Brooklyn Latin School, The","High school","223 GRAHAM AVENUE","NY","-73.944463","40.709765","East Williamsburg","718-366-0154","718-381-3012","NULL"
"402","K451","Shorefront High School Of Arts And Sciences At Joh","High school","50 AVENUE X","NY","-73.981925","40.58807","Gravesend","NULL","NULL","DIMOLA, ISABEL"
"403","K452","Frederick Douglass Academy VIII Middle School","Junior High-Intermediate-Middle","1400 PENNSYLVANIA AVENUE","NY","-73.881997","40.64664","Starrett City","718-348-2465","718-642-4537","THOMAS MCBRYDE JR"
"404","K453","Academy Of Career Exploration Of Sheepshead Bay","High school","3000 AVENUE X","NY","-73.936635","40.593157","Sheepshead Bay-Gerritsen Beach-Manhattan Beach","NULL","NULL","BOVE, JULIA"
"405","K454","The Williamsburg High School of Art and Technology","High school","223 GRAHAM AVENUE","NY","-73.944463","40.709765","East Williamsburg","718-599-1207","718-387-7945","NULL"
"406","K455","Boys and Girls High School","High school","1700 FULTON STREET","NY","-73.931604","40.678478","Crown Heights North","718-467-1700","718-221-0645","NULL"
"407","K459","Erasmus Campus - Science/Math","High school","911 FLATBUSH AVENUE","NY","-73.9585","40.6495","Erasmus","718-564-2451","718-564-2452","Rhonda Hurdle Taylor"
"408","K460","John Jay Hs","High school","237 7 AVENUE","NY","-73.9793","40.6696","Park Slope-Gowanus","718-788-1514","718-832-0273","Rosemary Stuart"
"409","K462","John Jay School for Law","High school","237 7 AVENUE","NY","-73.97858","40.669255","Park Slope-Gowanus","718-832-4250","718-499-3947","NULL"
"410","K463","Cyberarts Studio Academy","High school","237 7 AVENUE","NY","-73.97858","40.669255","Park Slope-Gowanus","718-832-4201","718-832-0273","NULL"
"411","K464","Park Slope Collegiate","Secondary School","237 7 AVENUE","NY","-73.97858","40.669255","Park Slope-Gowanus","718-832-4300","718-788-8127","NULL"
"412","K468","Kingsborough Early College School","Secondary School","2630 BENSON AVENUE","NY","-73.986313","40.593028","Gravesend","718-333-7850","718-333-7875","NULL"
"413","K469","Erasmus Campus - Humanities","High school","911 FLATBUSH AVENUE","NY","-73.9585","40.6495","Erasmus","718-564-2500","718-564-2501","Rhonda Hurdle Taylor"
"414","K470","George W Wingate Hs","High school","600 KINGSTON AVENUE","NY","-73.9425","40.6589","Prospect Lefferts Gardens-Wingate","718-467-7400","718-604-3029","Rhonda Hurdle Taylor"
"415","K473","Williamsburg Charter High School","High school","198 VARET STREET","NY","-73.935969","40.703703","Bushwick South","718-782-9830","347-464-7604","NULL"
"416","K474","PROGRESS High School for Professional Careers","High school","850 GRAND STREET","NY","-73.938921","40.711134","Bushwick South","718-387-0228","718-384-1702","NULL"
"417","K477","East Williamsburg Scholars Academy","High school","850 GRAND STREET","NY","-73.938921","40.711134","Bushwick South","718-387-2800","718-387-3281","NULL"
"418","K478","The High School for Enterprise, Business and Techn","High school","850 GRAND STREET","NY","-73.938921","40.711134","Bushwick South","718-387-2800","718-387-2748","NULL"
"419","K479","Erasmus Campus - Business/Tec","High school","911 FLATBUSH AVENUE","NY","-73.9585","40.6495","Erasmus","718-564-2401","718-564-2402","Rhonda Hurdle Taylor"
"420","K480","Bushwick Hs","High school","400 IRVING AVENUE","NY","-73.9108","40.697","Bushwick North","718-381-7100","718-381-1905","Lillian Druck"
"421","K483","The Urban Assembly School for Law and Justice","High school","283 ADAMS STREET","NY","-73.988323","40.694629","DUMBO-Vinegar Hill-Downtown Brooklyn-Boerum Hill","718-858-1160","718-858-4733","NULL"
"422","K484","Ronald Edmonds Learning Center II","Junior High-Intermediate-Middle","430 HOWARD AVENUE","NY","-73.920095","40.673124","Ocean Hill","718-467-0306","718-953-0682","ELLIS, CLARENCE"
"423","K485","High School of Telecommunication Arts and Technolo","High school","350 67 STREET","NY","-74.023419","40.636721","Bay Ridge","718-759-3400","718-759-3490","NULL"
"424","K486","New Dawn Charter High School","High school","760 DEKALB AVENUE","NY","-73.946093","40.691606","Bedford","347-505-9101","NULL","NULL"
"425","K488","Brooklyn Preparatory High School","High school","257 NORTH  6 STREET","NY","-73.954815","40.715561","North Side-South Side","718-486-2550","718-486-2505","NULL"
"426","K489","W.E.B. Dubois Academic High School","High school","402 EASTERN PARKWAY","NY","-73.955188","40.669561","Crown Heights South","718-773-7765","718-773-7849","NULL"
"427","K490","Fort Hamilton High School","High school","8301 SHORE ROAD","NY","-74.038103","40.626827","Bay Ridge","718-748-1537","718-836-3955","NULL"
"428","K492","Academy of Arts and Letters","K-8","225 ADELPHI STREET","NY","-73.970896","40.690742","Fort Greene","718-222-1605","718-852-6020","SAMUELS, KAMAR"
"429","K493","Brooklyn Collegiate: A College Board School","High school","2021 BERGEN STREET","NY","-73.912685","40.674456","Ocean Hill","718-922-1145","718-922-2347","NULL"
"430","K494","Urban Assembly Young Women's Academy For Math, Sci","Secondary School","70 TOMPKINS AVENUE","NY","-73.947557","40.696698","Bedford","NULL","NULL","WINNICKI, ALICJA"
"431","K495","Sheepshead Bay High School","High school","3000 AVENUE X","NY","-73.936635","40.593157","Sheepshead Bay-Gerritsen Beach-Manhattan Beach","718-332-2003","718-648-9349","NULL"
"432","K497","The Boerum Hill School for International Studies","Secondary School","284 BALTIC STREET","NY","-73.993293","40.685006","DUMBO-Vinegar Hill-Downtown Brooklyn-Boerum Hill","718-330-9390","718-875-7522","SKOP, ANITA"
"433","K498","Brooklyn High School for Law and Technology","High school","1396 BROADWAY","NY","-73.920603","40.688399","Stuyvesant Heights","718-919-1256","718-852-4593","NULL"
"434","K499","ACORN Community High School","High school","561 GRAND AVENUE","NY","-73.961636","40.678591","Crown Heights North","718-789-2258","718-789-2260","NULL"
"435","K500","Canarsie High School","High school","1600 ROCKAWAY PARKWAY","NY","-73.898601","40.640543","Canarsie","718-290-8600","718-290-8681","NULL"
"436","K502","FDNY - Captain Vernon A. Richard High School for F","High school","400 PENNSYLVANIA AVENUE","NY","-73.895122","40.666868","East New York (Pennsylvania Ave)","718-688-7930","718-922-0593","NULL"
"437","K503","P.S. 503: The School of Discovery","Elementary","330 59 STREET","NY","-74.019299","40.64195","Sunset Park West","718-439-5962","718-439-0948","COSTANTINO, KARINA"
"438","K504","High School for Civil Rights","High school","400 PENNSYLVANIA AVENUE","NY","-73.895122","40.666868","East New York (Pennsylvania Ave)","718-688-7960","718-922-7253","NULL"
"439","K505","Franklin Delano Roosevelt High School","High school","5800 20 AVENUE","NY","-73.982583","40.621299","Borough Park","718-621-8800","718-232-9513","NULL"
"440","K506","P.S. 506: The School of Journalism & Technology","Elementary","330 59 STREET","NY","-74.019299","40.64195","Sunset Park West","718-492-0087","NULL","COSTANTINO, KARINA"
"441","K507","Performing Arts and Technology High School","High school","400 PENNSYLVANIA AVENUE","NY","-73.895122","40.666868","East New York (Pennsylvania Ave)","718-688-7900","718-922-0953","NULL"
"442","K508","Achievement First Endeavor Charter School","K-12 all grades","510 WAVERLY AVENUE","NY","-73.965928","40.682422","Clinton Hill","718-622-4786","718-789-1649","NULL"
"443","K509","Freedom Academy High School","High school","116 NASSAU STREET","NY","-73.986523","40.698274","DUMBO-Vinegar Hill-Downtown Brooklyn-Boerum Hill","718-694-8357","718-694-8360","NULL"
"444","K510","World Academy for Total Community Health High Scho","High school","400 PENNSYLVANIA AVENUE","NY","-73.895122","40.666868","East New York (Pennsylvania Ave)","718-688-7980","718-922-0709","NULL"
"445","K512","Bushwick Outreach","High school","231 PALMETTO STREET","NY","-73.9151","40.6954","Bushwick North","718-443-3083","718-919-7081","Lillian Druck"
"446","K513","East New York Preparatory Charter School","Elementary","210 CHESTER STREET","NY","-73.911279","40.666187","Brownsville","718-485-8591","718-227-2763","NULL"
"447","K514","Frederick Douglass Academy VII High School","High school","226 BRISTOL STREET","NY","-73.912102","40.665568","Brownsville","718-485-3789","718-922-2761","NULL"
"448","K515","South Shore High School","High school","6565 FLATLANDS AVENUE","NY","-73.916927","40.634451","Canarsie","718-968-4100","718-251-0248","NULL"
"449","K516","Sunset Park Avenues Elementary School","Elementary","4222 4TH AVENUE","NY","-74.008106","40.650793","Sunset Park West","718-369-8330","718-965-7685","SKOP, ANITA"
"450","K517","Leadership Prep Bedford Stuyvesant Uncommon Prep C","K-12 all grades","141 MACON STREET","NY","-73.9456","40.68192","Bedford","718-636-0360","718-636-0747","NULL"
"451","K518","Kappa V (Knowledge and Power Preparatory Academy)","Junior High-Intermediate-Middle","985 ROCKAWAY AVENUE","NY","-73.906662","40.655644","Brownsville","718-922-4690","718-922-5053","PATE, MIATHERESA"
"452","K519","Cobble Hill School of American Studies","High school","347 BALTIC STREET","NY","-73.990884","40.684869","DUMBO-Vinegar Hill-Downtown Brooklyn-Boerum Hill","718-403-9544","718-403-9553","NULL"
"453","K520","Pacific High School","High school","112 SCHERMERHORN STREET","NY","-73.989369","40.690007","DUMBO-Vinegar Hill-Downtown Brooklyn-Boerum Hill","718-855-7155","718-852-3892","NULL"
"454","K521","District 18 ES#1","Elementary","1077 REMSEN AVENUE","NY","-73.90788","40.642684","Canarsie","NULL","NULL","WILKINS, BEVERLY"
"455","K522","Mott Hall IV","Junior High-Intermediate-Middle","1137 HERKIMER STREET","NY","-73.915106","40.678124","Ocean Hill","718-485-5240","NULL","PATE, MIATHERESA"
"456","K523","New Horizons Preparatory School","High school","1925 STUART STREET","NY","-73.938721","40.606745","park-cemetery-etc-Brooklyn","NULL","NULL","ELLIS, CLARENCE"
"457","K524","International High School at Prospect Heights","High school","883 CLASSON AVENUE","NY","-73.960689","40.669805","Crown Heights South","718-230-6333","718-230-6322","NULL"
"458","K525","Edward R. Murrow High School","High school","1600 AVENUE L","NY","-73.959141","40.619671","Midwood","718-258-9283","718-252-2611","NULL"
"459","K527","Urban Assembly Institute of Math and Science for Y","Secondary School","283 ADAMS STREET","NY","-73.988323","40.694629","DUMBO-Vinegar Hill-Downtown Brooklyn-Boerum Hill","718-260-2300","718-260-2301","NULL"
"460","K528","The High School for Global Citizenship","High school","883 CLASSON AVENUE","NY","-73.960689","40.669805","Crown Heights South","718-230-6300","718-230-6301","ELLIS, CLARENCE"
"461","K529","West Brooklyn Community High School","High school","1053 41ST STREET","NY","-73.992151","40.642619","Sunset Park East","718-686-1444","718-686-1189","NULL"
"462","K530","Metropolitan Corporate Academy High School","High school","362 SCHERMERHORN STREET","NY","-73.979829","40.686147","DUMBO-Vinegar Hill-Downtown Brooklyn-Boerum Hill","718-222-6200","718-222-6296","NULL"
"463","K531","School for Human Rights, The","Secondary School","600 KINGSTON AVENUE","NY","-73.943839","40.658671","Prospect Lefferts Gardens-Wingate","718-771-4793","718-771-4815","NULL"
"464","K532","New Bridges Elementary","Elementary","1025 EASTERN PARKWAY","NY","-73.934316","40.669557","Crown Heights North","718-363-8200","718-363-8202","ELLIS, CLARENCE"
"465","K533","School for Democracy and Leadership","Secondary School","600 KINGSTON AVENUE","NY","-73.943839","40.658671","Prospect Lefferts Gardens-Wingate","718-771-4865","718-771-5847","NULL"
"466","K534","Upper School @ P.S. 25","Junior High-Intermediate-Middle","787 LAFAYETTE AVENUE","NY","-73.940749","40.691472","Stuyvesant Heights","718-574-6032","718-602-2357","AMON, RAHESHA"
"467","K535","Leon M. Goldstein High School for the Sciences","High school","1830 SHORE BOULEVARD","NY","-73.934449","40.578356","Sheepshead Bay-Gerritsen Beach-Manhattan Beach","718-368-8500","718-368-8555","NULL"
"468","K536","Community Roots Charter School","K-8","51 SAINT EDWARDS STREET","NY","-73.977674","40.695339","Fort Greene","718-858-1629","718-858-1754","NULL"
"469","K537","High School for Youth and Community Development at","High school","911 FLATBUSH AVENUE","NY","-73.957173","40.649602","Erasmus","718-564-2470","718-564-2471","NULL"
"470","K538","Achievement First Bushwick Charter School","K-12 all grades","1300 GREENE AVENUE","NY","-73.919088","40.697898","Bushwick North","718-453-0425","718-453-0428","NULL"
"471","K539","High School for Service & Learning at Erasmus","High school","911 FLATBUSH AVENUE","NY","-73.957173","40.649602","Erasmus","718-564-2551","718-564-2552","NULL"
"472","K540","John Dewey High School","High school","50 AVENUE X","NY","-73.981925","40.58807","Gravesend","718-373-6400","718-266-4385","NULL"
"473","K543","Science, Technology and Research Early College Hig","Secondary School","911 FLATBUSH AVENUE","NY","-73.957173","40.649602","Erasmus","718-564-2540","718-564-2541","NULL"
"474","K544","International Arts Business School","High school","600 KINGSTON AVENUE","NY","-73.943839","40.658671","Prospect Lefferts Gardens-Wingate","718-467-7400","718-604-3029","NULL"
"475","K545","EBC High School for Public Service - Bushwick","High school","1155 DEKALB AVENUE","NY","-73.929315","40.694723","Bushwick South","718-452-3440","718-452-3603","NULL"
"476","K546","High School for Public Service: Heroes of Tomorrow","High school","600 KINGSTON AVENUE","NY","-73.943839","40.658671","Prospect Lefferts Gardens-Wingate","718-756-5325","718-363-3206","NULL"
"477","K547","Brooklyn Academy of Science and the Environment","High school","883 CLASSON AVENUE","NY","-73.960689","40.669805","Crown Heights South","718-230-6363","718-230-6370","NULL"
"478","K548","Brooklyn School for Music & Theatre","High school","883 CLASSON AVENUE","NY","-73.960689","40.669805","Crown Heights South","718-230-6250","718-230-6262","NULL"
"479","K549","The Brooklyn School for Social Justice","High school","400 IRVING AVENUE","NY","-73.911751","40.696457","Bushwick North","718-381-7100","718-418-0192","NULL"
"480","K551","New York Harbor School","High school","400 IRVING AVENUE","NY","-73.911751","40.696457","Bushwick North","718-381-7100","718-418-0128","NULL"
"481","K552","The Academy of Urban Planning and Engineering","High school","400 IRVING AVENUE","NY","-73.911751","40.696457","Bushwick North","718-381-7100","718-418-0314","NULL"
"482","K553","Brooklyn Academy High School","High school","832 MARCY AVENUE","NY","-73.947873","40.684654","Bedford","718-857-4237","718-399-1909","NULL"
"483","K554","All City Leadership Secondary School","Secondary School","321 PALMETTO STREET","NY","-73.913172","40.697378","Bushwick North","718-246-6500","718-246-6509","NULL"
"484","K555","Brooklyn College Academy","High school","350 CONEY ISLAND AVENUE","NY","-73.972312","40.649055","Windsor Terrace","718-853-6184","718-853-6356","NULL"
"485","K556","Bushwick Leaders High School for Academic Excellen","High school","797 BUSHWICK AVENUE","NY","-73.927349","40.695436","Bushwick South","718-919-4212","718-574-1103","NULL"
"486","K557","Brooklyn Gardens Elementary School","Elementary","574 DUMONT AVENUE","NY","-73.897604","40.665446","East New York (Pennsylvania Ave)","718-495-7012","718-495-7018","THOMAS MCBRYDE JR"
"487","K558","Williamsburg High School for Architecture and Desi","High school","257 NORTH  6 STREET","NY","-73.954815","40.715561","North Side-South Side","718-388-1260","718-486-2580","NULL"
"488","K559","Life Academy High School for Film and Music","High school","2630 BENSON AVENUE","NY","-73.986313","40.593028","Gravesend","718-333-7750","718-333-7775","NULL"
"489","K561","Williamsburg Preparatory School","High school","257 NORTH  6 STREET","NY","-73.954815","40.715561","North Side-South Side","718-302-2306","718-302-3726","NULL"
"490","K562","Evergreen Middle School for Urban Exploration","Junior High-Intermediate-Middle","125 COVERT STREET","NY","-73.910589","40.688647","Bushwick South","718-455-0180","718-455-4381","GORSKI, SHEILA"
"491","K563","It Takes a Village Academy","High school","5800 TILDEN AVENUE","NY","-73.922212","40.647728","Rugby-Remsen Village","718-629-2307","718-629-6162","NULL"
"492","K564","Bushwick Community High School","High school","231 PALMETTO STREET","NY","-73.915217","40.695875","Bushwick North","718-443-3083","718-919-0781","NULL"
"493","K565","HS Of Redirection","High school","226 BRISTOL STREET","NY","-73.9117","40.6659","Brownsville","718-498-2605","718-345-8069","NULL"
"494","K566","Brooklyn Community High School for Excellence and","High school","6565 FLATLANDS AVENUE","NY","-73.916927","40.634451","Canarsie","718-968-4200","718-444-5419","NULL"
"495","K567","Brooklyn Theatre Arts High School","High school","6565 FLATLANDS AVENUE","NY","-73.916927","40.634451","Canarsie","718-968-1072","718-968-1065","NULL"
"496","K568","Brownsville Academy High School","High school","1150 EAST NEW YORK AVENUE","NY","-73.923881","40.666251","Brownsville","718-778-7305","718-778-7385","NULL"
"497","K569","Kurt Hahn Expeditionary Learning School","High school","5800 TILDEN AVENUE","NY","-73.922212","40.647728","Rugby-Remsen Village","718-629-1204","718-629-1076","NULL"
"498","K571","M.S. 571","Junior High-Intermediate-Middle","80 UNDERHILL AVENUE","NY","-73.966333","40.678554","Prospect Heights","718-638-1740","718-638-0295","FREEMAN, BARBARA"
"499","K572","Leaders High School","High school","2630 BENSON AVENUE","NY","-73.986313","40.593028","Gravesend","718-333-7700","718-333-7725","NULL"
"500","K574","Upper Academy At Ps 23","Junior High-Intermediate-Middle","545 WILLOUGHBY AVENUE","NY","-73.9476","40.6941","Bedford","NULL","NULL","James Quail"
"501","K575","Bedford Stuyvesant Preparatory High School","High school","832 MARCY AVENUE","NY","-73.947873","40.684654","Bedford","718-622-4310","718-398-4381","NULL"
"502","K576","Victory Collegiate High School","High school","6565 FLATLANDS AVENUE","NY","-73.916927","40.634451","Canarsie","718-968-1530","718-968-1526","NULL"
"503","K577","Conselyea Preparatory School","Junior High-Intermediate-Middle","208 NORTH  5 STREET","NY","-73.9573","40.715268","North Side-South Side","718-486-6211","718-486-6771","WINNICKI, ALICJA"
"504","K578","Brooklyn Bridge Academy","High school","6565 FLATLANDS AVENUE","NY","-73.916927","40.634451","Canarsie","718-968-1689","718-968-1678","NULL"
"505","K579","Upper Academy At Ps 147","Junior High-Intermediate-Middle","325 BUSHWICK AVENUE","NY","-73.9394","40.7052","Bushwick South","NULL","NULL","James Quail"
"506","K580","Literacy Center - Brooklyn","High school","832 MARCY AVENUE","NY","-73.9472","40.685","Bedford","718-636-5770","718-398-4476","James Machen"
"507","K581","The Middle School of Media, Law and Fine Arts","Junior High-Intermediate-Middle","905 WINTHROP STREET","NY","-73.928744","40.659088","Prospect Lefferts Gardens-Wingate","718-773-3059","718-773-3827","WILKINS, BEVERLY"
"508","K582","M.S. 582","Junior High-Intermediate-Middle","207 BUSHWICK AVENUE","NY","-73.939385","40.708804","Bushwick South","718-456-8218","718-456-8220","WINNICKI, ALICJA"
"509","K583","Multicultural High School","High school","999 JAMAICA AVENUE","NY","-73.869305","40.693002","park-cemetery-etc-Brooklyn","718-827-2796","718-827-3970","NULL"
"510","K584","M.S. 584","Junior High-Intermediate-Middle","130 ROCHESTER AVENUE","NY","-73.928673","40.674491","Crown Heights North","718-604-1380","718-604-3784","AMON, RAHESHA"
"511","K585","Brooklyn Comprehensive Night High School","High school","6565 FLATLANDS AVENUE","NY","-73.9167","40.6333","Canarsie","718-968-4200","718-629-2718","NULL"
"512","K586","Lyons Community School","Secondary School","223 GRAHAM AVENUE","NY","-73.944463","40.709765","East Williamsburg","718-782-0918","718-782-5283","NULL"
"513","K587","Middle School for the Arts","Junior High-Intermediate-Middle","790 EAST NEW YORK AVENUE","NY","-73.936313","40.662092","Prospect Lefferts Gardens-Wingate","718-773-3343","718-773-4168","SIMMONS, BUFFIE"
"514","K588","Middle School for Art and Philosophy","Junior High-Intermediate-Middle","1084 LENOX ROAD","NY","-73.919818","40.657712","Rugby-Remsen Village","718-342-7563","718-342-8131","WILKINS, BEVERLY"
"515","K589","Arts & Media Preparatory Academy","High school","905 WINTHROP STREET","NY","-73.928744","40.659088","Prospect Lefferts Gardens-Wingate","718-773-3908","718-773-7274","NULL"
"516","K590","Medgar Evers College Preparatory School","Secondary School","1186 CARROLL STREET","NY","-73.951823","40.66679","Crown Heights South","718-703-5400","718-703-5600","NULL"
"517","K592","Khalil Gibran International Academy","High school","362 SCHERMERHORN STREET","NY","-73.979829","40.686147","DUMBO-Vinegar Hill-Downtown Brooklyn-Boerum Hill","718-237-2502","718-488-1724","NULL"
"518","K593","Excellence Boys Charter School","K-8","239 PATCHEN AVENUE","NY","-73.925851","40.683446","Stuyvesant Heights","718-638-1830","718-638-2548","NULL"
"519","K594","Gotham Professional Arts Academy","High school","561 GRAND AVENUE","NY","-73.961636","40.678591","Crown Heights North","718-230-7270","718-574-3971","NULL"
"520","K595","Bedford Academy High School","High school","1119 BEDFORD AVENUE","NY","-73.953692","40.685486","Bedford","718-398-3061","718-636-3819","NULL"
"521","K596","M.S. 596 Peace Academy","Junior High-Intermediate-Middle","300 WILLOUGHBY AVENUE","NY","-73.95818","40.692015","Clinton Hill","718-230-3273","718-230-0173","FREEMAN, BARBARA"
"522","K598","Middle School of Marketing and Legal Studies","Junior High-Intermediate-Middle","905 WINTHROP STREET","NY","-73.928744","40.659088","Prospect Lefferts Gardens-Wingate","718-773-7343","718-773-7946","WILKINS, BEVERLY"
"523","K599","Brooklyn Landmark Elementary School","Elementary","251 MAC DOUGAL STREET","NY","-73.910719","40.680679","Ocean Hill","718-443-2747","718-443-4365","PATE, MIATHERESA"
"524","K600","Clara Barton High School","High school","901 CLASSON AVENUE","NY","-73.960689","40.669805","Crown Heights South","718-636-4900","718-857-3688","NULL"
"525","K605","George Westinghouse Career and Technical Education","High school","105 TECH PLACE","NY","-73.986105","40.695444","DUMBO-Vinegar Hill-Downtown Brooklyn-Boerum Hill","718-625-6130","718-596-9434","NULL"
"526","K605","George Westinghouse Career and Technical Education","High school","105 TECH PLACE","NY","-73.986105","40.695444","DUMBO-Vinegar Hill-Downtown Brooklyn-Boerum Hill","718-625-6130","718-596-9434","NULL"
"527","K608","Kings Collegiate Charter School","K-12 all grades","1084 LENOX ROAD","NY","-73.919818","40.657712","Rugby-Remsen Village","347-390-0460","718-342-6727","NULL"
"528","K609","Urban Assembly School for Criminal Justice","Secondary School","4200 16 AVENUE","NY","-73.982424","40.6351","Borough Park","718-438-3893","718-438-3527","NULL"
"529","K610","A-Tech High School","High school","50 BEDFORD AVENUE","NY","-73.953328","40.721448","North Side-South Side","718-218-9301","718-599-4351","NULL"
"530","K611","Origins High School","High school","3000 AVENUE X","NY","-73.936635","40.593157","Sheepshead Bay-Gerritsen Beach-Manhattan Beach","718-891-0037","718-891-0047","NULL"
"531","K612","Community Preparatory High School","High school","40 EAST  29 STREET","NY","-73.9848","40.7444","Midtown-Midtown South","212-889-7567","212-889-8056","NULL"
"532","K614","Young Women's Leadership School of Brooklyn","Secondary School","325 BUSHWICK AVENUE","NY","-73.93879","40.705005","Bushwick South","718-387-5641","NULL","NULL"
"533","K615","Transit Tech Career and Technical Education High S","High school","1 WELLS STREET","NY","-73.875328","40.67878","East New York","718-647-5204","718-647-4458","NULL"
"534","K616","Brooklyn High School for Leadership and Community","High school","300 WILLOUGHBY AVENUE","NY","-73.95818","40.692015","Clinton Hill","718-638-3062","718-638-3404","NULL"
"535","K617","High School for Innovation in Advertising and Medi","High school","1600 ROCKAWAY PARKWAY","NY","-73.898601","40.640543","Canarsie","718-290-8760","718-290-8766","NULL"
"536","K618","Academy of Innovative Technology","High school","999 JAMAICA AVENUE","NY","-73.869305","40.693002","park-cemetery-etc-Brooklyn","718-827-2469","718-827-4013","NULL"
"537","K620","William E. Grady Career and Technical Education Hi","High school","25 BRIGHTON  4TH ROAD","NY","-73.963764","40.583263","Brighton Beach","718-332-5000","718-332-2544","NULL"
"538","K625","Paul Robeson High School","High school","150 ALBANY AVENUE","NY","-73.939282","40.675905","Crown Heights North","718-774-0300","718-467-3692","NULL"
"539","K626","Achievement First Brownsville Charter School","K-12 all grades","2021 BERGEN STREET","NY","-73.912685","40.674456","Ocean Hill","347-471-2600","347-402-2900","NULL"
"540","K627","Brighter Choice Community School","Elementary","280 HART STREET","NY","-73.941278","40.693654","Stuyvesant Heights","718-574-2378","718-443-0639","MARTIN, YOLANDA"
"541","K628","Brooklyn Brownstone School","Elementary","272 MACDONOUGH STREET","NY","-73.935891","40.681528","Stuyvesant Heights","718-573-2307","718-573-2434","MARTIN, YOLANDA"
"542","K629","Cultural Academy for the Arts and Sciences","High school","5800 TILDEN AVENUE","NY","-73.922212","40.647728","Rugby-Remsen Village","718-968-6630","718-968-6635","NULL"
"543","K630","Professional Pathways High School","High school","3000 AVENUE X","NY","-73.936635","40.593157","Sheepshead Bay-Gerritsen Beach-Manhattan Beach","718-332-6290","718-332-6296","NULL"
"544","K631","General D. Chappie James Elementary School of Scie","Elementary","76 RIVERDALE AVENUE","NY","-73.913508","40.659618","Brownsville","718-495-0952","718-495-1134","DEGOVIA, MAURICIERE"
"545","K632","Frances Perkins Academy","High school","50 BEDFORD AVENUE","NY","-73.953328","40.721448","North Side-South Side","718-388-7721","718-388-7793","NULL"
"546","K633","High School for Medical Professions","High school","1600 ROCKAWAY PARKWAY","NY","-73.898601","40.640543","Canarsie","718-290-8700","718-290-8705","NULL"
"547","K634","General D. Chappie James Middle School of Science","Junior High-Intermediate-Middle","76 RIVERDALE AVENUE","NY","-73.913508","40.659618","Brownsville","718-498-5276","718-498-5361","DEGOVIA, MAURICIERE"
"548","K635","Olympus Academy","High school","755 EAST  100 STREET","NY","-73.898607","40.645965","Canarsie","718-272-1926","718-272-5713","NULL"
"549","K635","Olympus Academy","High school","755 EAST  100 STREET","NY","-73.898607","40.645965","Canarsie","718-272-1926","718-272-5713","NULL"
"550","K636","Young Scholars' Academy for Discovery and Explorat","Elementary","280 HART STREET","NY","-73.941278","40.693654","Stuyvesant Heights","718-453-4081","718-453-7847","AMON, RAHESHA"
"551","K637","Academy for Conservation and the Environment","High school","6565 FLATLANDS AVENUE","NY","-73.916927","40.634451","Canarsie","718-968-4101","718-968-4296","NULL"
"552","K639","Brooklyn Lab School","High school","999 JAMAICA AVENUE","NY","-73.869305","40.693002","park-cemetery-etc-Brooklyn","718-235-3592","718-235-4028","NULL"
"553","K640","Harry Van Arsdale High School","High school","257 NORTH  6 STREET","NY","-73.9548","40.7151","North Side-South Side","718-486-2500","718-486-2600","James Quail"
"554","K642","Urban Action Academy","High school","1600 ROCKAWAY PARKWAY","NY","-73.898601","40.640543","Canarsie","718-290-8720","718-290-8721","NULL"
"555","K643","Brooklyn Democracy Academy","High school","985 ROCKAWAY AVENUE","NY","-73.906662","40.655644","Brownsville","718-342-6348","718-342-6708","NULL"
"556","K644","Eagle Academy for Young Men II","Secondary School","1137 HERKIMER STREET","NY","-73.915106","40.678124","Ocean Hill","718-495-0863","718-732-2129","PATE, MIATHERESA"
"557","K645","EBC/ENY High School for Public Safety & Law","High school","1495 HERKIMER STREET","NY","-73.904143","40.677528","Ocean Hill","718-498-7163","718-498-7170","NULL"
"558","K646","Aspirations Diploma Plus High School","High school","402 EASTERN PARKWAY","NY","-73.955188","40.669561","Crown Heights South","718-773-7765","718-498-5264","NULL"
"559","K647","Metropolitan Diploma Plus High School","High school","985 ROCKAWAY AVENUE","NY","-73.906662","40.655644","Brownsville","718-342-6249","718-342-6329","NULL"
"560","K648","Bedford Stuyvesant Collegiate Charter School","Secondary School","800 GATES AVENUE","NY","-73.932066","40.68797","Stuyvesant Heights","718-669-7460","718-669-7771","NULL"
"561","K649","La Cima Charter School","Elementary","800 GATES AVENUE","NY","-73.932066","40.68797","Stuyvesant Heights","718-443-2136","718-443-7291","NULL"
"562","K651","PAVE Academy Charter School","K-8","732 HENRY STREET","NY","-74.003372","40.675936","Carroll Gardens-Columbia Street-Red Hook","718-858-7813","718-858-7814","NULL"
"563","K652","Brooklyn Ascend Charter School","K-12 all grades","205 Rockaway Parkway","NY","-73.92044","40.661945","Brownsville","718-240-9162","718-240-9140","NULL"
"564","K654","Van Siclen Community Middle School","Junior High-Intermediate-Middle","800 VAN SICLEN AVE","NY","-73.885704","40.659934","East New York","718-927-4701","718-927-4707","THOMAS MCBRYDE JR"
"565","K656","Brooklyn High School of the Arts","High school","345 DEAN STREET","NY","-73.980266","40.683951","DUMBO-Vinegar Hill-Downtown Brooklyn-Boerum Hill","718-855-2412","718-596-5027","SKOP, ANITA"
